"","Name","System_number","Ecosystem_type","Country","Continent","Latitude","Longitude","LSR_mmy.1","DBD_gcm.3","Cdensity_kgCm.3","OC_content","OCBrate_gCm.2y.1","OC_depo_gCm.2y.1","OCBeff","Dating_method","Reference","Notes_ID"
"1","Becharof",13,"Lake","USA","N. America",57.96,-156.42,NA,NA,NA,NA,1.52,5.24,29,"210Pb and 14C","Alin & Johnson 2007","A2007_1"
"2","Erie ",53,"Lake","USA","N. America",42.02,-105.1,0.9,NA,NA,NA,11.13,241.92,4.6,"210Pb and 14C","Alin & Johnson 2007","A2007_1"
"3","Great Salt",68,"Lake","USA","N. America",41.12,-112.48,0.2,NA,NA,NA,1.5,150,1,"210Pb and 14C","Alin & Johnson 2007","A2007_1"
"4","Great Slave",69,"Lake","Canada","N. America",61.45,-115.09,3.05,NA,NA,NA,5.64,9.39,60,"210Pb and 14C","Alin & Johnson 2007","A2007_1"
"5","Huron",77,"Lake","USA/Canada","N. America",45.05,-82.49,0.97,NA,NA,NA,2.16,55.5,3.9,"210Pb and 14C","Alin & Johnson 2007","A2007_1"
"6","Iliamna",79,"Lake","USA","N. America",59.56,-155.15,NA,NA,NA,NA,0.79,13.15,6,"210Pb and 14C","Alin & Johnson 2007","A2007_1"
"7","Michigan",121,"Lake","USA","N. America",43.45,-87.22,NA,NA,NA,NA,2.77,138.41,2,"210Pb and 14C","Alin & Johnson 2007","A2007_1"
"8","Ontario",135,"Lake","USA/Canada","N. America",43.63,-77.83,2.8,NA,NA,NA,58.02,232.07,25,"210Pb and 14C","Alin & Johnson 2007","A2007_1"
"9","Superior",178,"Lake","USA/Canada","N. America",47.72,-86.94,0.35,NA,NA,NA,1.24,60.5,2.05,"210Pb and 14C","Alin & Johnson 2007","A2007_1,2"
"10","Winnipeg",207,"Lake","Canada","N. America",53.3,-97.97,1.02,NA,NA,NA,5.21,19.84,26.25,"210Pb and 14C","Alin & Johnson 2007","A2007_1"
"11","Nicaragua",213,"Lake","Nicaragua","C. America",11.58,-85.35,0.85,NA,NA,NA,10.06,718.92,1.4,"210Pb and 14C","Alin & Johnson 2007","A2007_1,3"
"12","Titicaca",221,"Lake","Peru/Bolivia","S. America",-15.93,-69.34,0.25,NA,NA,NA,4.44,403.62,1.1,"210Pb and 14C","Alin & Johnson 2007","A2007_1"
"13","Albert",222,"Lake","DRC/Uganda","Africa",1.77,30.99,1.4,NA,NA,NA,5.26,1051.88,0.5,"210Pb and 14C","Alin & Johnson 2007","A2007_1"
"14","Chad",223,"Lake","Chad","Africa",13.1,14.45,NA,NA,NA,NA,14.42,554.66,2.6,"210Pb and 14C","Alin & Johnson 2007","A2007_1"
"15","Edward",224,"Lake","DRC/Uganda","Africa",-0.33,29.7,3.38,NA,NA,NA,21.63,1802.87,1.2,"210Pb and 14C","Alin & Johnson 2007","A2007_1"
"16","Kivu",226,"Lake","DRC/Rwanda","Africa",-2.04,29.19,0.3,NA,NA,NA,3.8,380,1,"210Pb and 14C","Alin & Johnson 2007","A2007_1"
"17","Malawi",227,"Lake","Mozambique/Tanzania","Africa",-11.67,34.69,1,NA,NA,NA,12.27,233.75,5.25,"210Pb and 14C","Alin & Johnson 2007","A2007_1,4"
"18","Tanganyika ",228,"Lake","DRC/Tanzania","Africa",-6.26,29.51,1,NA,NA,NA,15.03,357.87,4.2,"210Pb and 14C","Alin & Johnson 2007","A2007_1"
"19","Turkana ",229,"Lake","Kenya","Africa",3.63,36,2.25,NA,NA,NA,6.97,774.54,0.9,"210Pb and 14C","Alin & Johnson 2007","A2007_1"
"20","Victoria",230,"Lake","Several","Africa",-0.76,22.44,0.7,NA,NA,NA,6.47,2156.01,0.3,"210Pb and 14C","Alin & Johnson 2007","A2007_1"
"21","Baikal",231,"Lake","Russia","Asia",53.56,108.16,0.6,NA,NA,NA,2.69,107.56,2.5,"210Pb and 14C","Alin & Johnson 2007","A2007_1"
"22","Biwa",232,"Lake","Japan","Asia",35.35,136.17,NA,NA,NA,NA,2.25,180.23,1.25,"210Pb and 14C","Alin & Johnson 2007","A2007_1,5"
"23","Caspian Sea",233,"Lake","Several","Asia",41.93,50.67,0.55,NA,NA,NA,10.49,276.09,3.8,"210Pb and 14C","Alin & Johnson 2007","A2007_1"
"24","Issyk Kul",240,"Lake","Kyrgyzstan","Asia",42.39,77.29,0.4,NA,NA,NA,1.84,63.55,2.9,"210Pb and 14C","Alin & Johnson 2007","A2007_1"
"25","Van",247,"Lake","Turkey","Asia",38.61,42.92,0.59,NA,NA,NA,2.1,NA,NA,"210Pb and 14C","Alin & Johnson 2007",""
"26","Constance",254,"Lake","Several","Europe",47.64,9.39,NA,NA,NA,NA,11.06,283.48,3.9,"210Pb and 14C","Alin & Johnson 2007","A2007_1"
"27","Ladoga",342,"Lake","Russia","Europe",60.87,31.51,4.5,NA,NA,NA,5,17.24,29,"210Pb and 14C","Alin & Johnson 2007","A2007_1"
"28","Vänern",348,"Lake","Sweden","Europe",59.03,13.63,2.2,NA,NA,NA,38.07,20.04,190,"210Pb and 14C","Alin & Johnson 2007","A2007_1"
"29","Vättern",349,"Lake","Sweden","Europe",58.33,14.52,1,NA,NA,NA,12.98,39.35,33,"210Pb and 14C","Alin & Johnson 2007","A2007_1"
"30","ESEC (Ecological Station of Seridó) reservoir",217,"Reservoir","Brazil","S. America",-6.58,37.26,NA,NA,NA,NA,161,380,42.37,"Thickness+reservoir age","Almeida et al. 2016","A2016_1"
"31","Esthwaite Water",338,"Lake","UK","Europe",54.36,-2.99,NA,NA,NA,NA,19.1,NA,NA,"210Pb","Anderson et al. 2014","B2013_1"
"32","Etang d'Aureilhan",339,"Lake","France","Europe",44.23,-1.21,NA,NA,NA,NA,89.8,NA,NA,"210Pb","Anderson et al. 2014","B2013_1"
"33","Fort Vechten",340,"Lake","Netherlands","Europe",52.06,5.17,NA,NA,NA,NA,33.7,NA,NA,"210Pb","Anderson et al. 2014",""
"34","Frederiksborg Slottsø",341,"Lake","Denmark","Europe",55.93,12.3,NA,NA,NA,NA,55.4,NA,NA,"210Pb","Anderson et al. 2014",""
"35","Friary Lough",342,"Lake","Germany","Europe",54.3,9.1,NA,NA,NA,NA,74.6,NA,NA,"210Pb","Anderson et al. 2014",""
"36","Augher Lough",638,"Lake","Ireland","Europe",54.3,-7.1,NA,NA,NA,NA,146,NA,NA,"210Pb","Anderson et al. 2014",""
"37","Baldeggersee",639,"Lake","Switzerland","Europe",47.2,8.27,NA,NA,NA,NA,35.1,NA,NA,"210Pb","Anderson et al. 2014",""
"38","Barton Broad",640,"Lake","UK","Europe",52.74,1.5,NA,NA,NA,NA,121,NA,NA,"210Pb","Anderson et al. 2014",""
"39","Bassenthwaite Lake",641,"Lake","UK","Europe",54.67,-3.23,NA,NA,NA,NA,37.4,NA,NA,"210Pb","Anderson et al. 2014",""
"40","Betton Pool",642,"Lake","UK","Europe",52.67,-2.73,NA,NA,NA,NA,152.4,NA,NA,"210Pb","Anderson et al. 2014",""
"41","Bosherston Lily Pond Centra",643,"Lake","UK","Europe",51.61,-4.93,NA,NA,NA,NA,71.3,NA,NA,"210Pb","Anderson et al. 2014",""
"42","Broad Lough Lower L. Erne",644,"Lake","UK","Europe",54.25,-7.52,NA,NA,NA,NA,34.1,NA,NA,"210Pb","Anderson et al. 2014",""
"43","Bryrup Lange sø",645,"Lake","Denmark","Europe",56.02,9.52,NA,NA,NA,NA,37.1,NA,NA,"210Pb","Anderson et al. 2014",""
"44","Butterstone Loch",646,"Lake","UK","Europe",56.59,-3.53,NA,NA,NA,NA,39.2,NA,NA,"210Pb","Anderson et al. 2014",""
"45","Carlingwark Loch",647,"Lake","UK","Europe",54.93,-3.93,NA,NA,NA,NA,70.6,NA,NA,"210Pb","Anderson et al. 2014",""
"46","Castle Loch",648,"Lake","UK","Europe",56.3,-3.2,NA,NA,NA,NA,87.9,NA,NA,"210Pb","Anderson et al. 2014",""
"47","Castle Semple Loch",649,"Lake","UK","Europe",55.8,-4.6,NA,NA,NA,NA,66.3,NA,NA,"210Pb","Anderson et al. 2014",""
"48","Corbet Lough",650,"Lake","UK","Europe",54.34,-6.19,NA,NA,NA,NA,96.8,NA,NA,"210Pb","Anderson et al. 2014",""
"49","De Waay",651,"Lake","Netherlands","Europe",51.93,5.15,NA,NA,NA,NA,92.1,NA,NA,"210Pb","Anderson et al. 2014",""
"50","Eleven Acre Lake at Stowe",652,"Lake","UK","Europe",52.03,-1.02,NA,NA,NA,NA,49.5,NA,NA,"210Pb","Anderson et al. 2014",""
"51","Esrom",653,"Lake","Denmark","Europe",56,12.38,NA,NA,NA,NA,23.5,NA,NA,"210Pb","Anderson et al. 2014",""
"52","Gjersjoens",654,"Lake","Norway","Europe",59.79,10.78,NA,NA,NA,NA,50.2,NA,NA,"210Pb","Anderson et al. 2014",""
"53","Greifensee",655,"Lake","Switzerland","Europe",47.35,8.68,NA,NA,NA,NA,46.8,NA,NA,"210Pb","Anderson et al. 2014",""
"54","Hagelseewli",656,"Lake","Switzerland","Europe",46.67,8.04,NA,NA,NA,NA,14.1,NA,NA,"210Pb","Anderson et al. 2014",""
"55","Hallwilersee",657,"Lake","Switzerland","Europe",47.28,8.22,NA,NA,NA,NA,28.8,NA,NA,"210Pb","Anderson et al. 2014",""
"56","Kalandsvatenet",658,"Lake","Norway","Europe",60.28,5.39,NA,NA,NA,NA,4.4,NA,NA,"210Pb","Anderson et al. 2014",""
"57","Kenfig Pool",660,"Lake","UK","Europe",51.52,-3.73,NA,NA,NA,NA,56.8,NA,NA,"210Pb","Anderson et al. 2014",""
"58","Kilbirnie Loch",661,"Lake","UK","Europe",55.76,-4.66,NA,NA,NA,NA,15.7,NA,NA,"210Pb","Anderson et al. 2014",""
"59","Knudsø",662,"Lake","Denmark","Europe",56.1,9.76,NA,NA,NA,NA,45.3,NA,NA,"210Pb","Anderson et al. 2014",""
"60","Lac d'Aydat",664,"Lake","Ukraine","Europe",45.66,32.99,NA,NA,NA,NA,54.7,NA,NA,"210Pb","Anderson et al. 2014",""
"61","Lac de Gerardmer",665,"Lake","France","Europe",48.07,6.85,NA,NA,NA,NA,4.3,NA,NA,"210Pb","Anderson et al. 2014",""
"62","Lading",666,"Lake","Denmark","Europe",56.1,9.1,NA,NA,NA,NA,76.8,NA,NA,"210Pb","Anderson et al. 2014",""
"63","Lake Ammerzoden",667,"Lake","Netherlands","Europe",51.74,5.23,NA,NA,NA,NA,296.1,NA,NA,"210Pb","Anderson et al. 2014",""
"64","Lake Bala",668,"Lake","UK","Europe",52.9,-3.6,NA,NA,NA,NA,33.6,NA,NA,"210Pb","Anderson et al. 2014",""
"65","Lake Bled",669,"Lake","Slovenia","Europe",46.37,14.09,NA,NA,NA,NA,15.2,NA,NA,"210Pb","Anderson et al. 2014",""
"66","Lake Mjøsa",670,"Lake","Norway","Europe",60.8,11,NA,NA,NA,NA,7.4,NA,NA,"210Pb","Anderson et al. 2014",""
"67","Lake of Menteith",671,"Lake","UK","Europe",56.18,-4.29,NA,NA,NA,NA,19.9,NA,NA,"210Pb","Anderson et al. 2014",""
"68","Lake Vansjø Vanemfjorden",672,"Lake","Norway","Europe",59.4,10.82,NA,NA,NA,NA,34.2,NA,NA,"210Pb","Anderson et al. 2014",""
"69","Langesø",673,"Lake","Denmark","Europe",55.43,10.2,NA,NA,NA,NA,151.2,NA,NA,"210Pb","Anderson et al. 2014",""
"70","Lindores Loch",674,"Lake","UK","Europe",56.33,-3.18,NA,NA,NA,NA,34,NA,NA,"210Pb","Anderson et al. 2014",""
"71","Llangorse Lake",675,"Lake","UK","Europe",51.93,-3.26,NA,NA,NA,NA,93.5,NA,NA,"210Pb","Anderson et al. 2014",""
"72","Loch Arkaig",676,"Lake","UK","Europe",56.98,-5.18,NA,NA,NA,NA,5.7,NA,NA,"210Pb","Anderson et al. 2014",""
"73","Loch Awe",677,"Lake","UK","Europe",56.3,-5.23,NA,NA,NA,NA,12.2,NA,NA,"210Pb","Anderson et al. 2014",""
"74","Loch Davan",678,"Lake","UK","Europe",57.09,-2.92,NA,NA,NA,NA,87.7,NA,NA,"210Pb","Anderson et al. 2014",""
"75","Loch Earn",679,"Lake","UK","Europe",56.39,-4.2,NA,NA,NA,NA,24.8,NA,NA,"210Pb","Anderson et al. 2014",""
"76","Loch Eye",680,"Lake","UK","Europe",57.79,-3.97,NA,NA,NA,NA,46.4,NA,NA,"210Pb","Anderson et al. 2014",""
"77","Loch Flemington",681,"Lake","UK","Europe",57.42,-3.99,NA,NA,NA,NA,72.5,NA,NA,"210Pb","Anderson et al. 2014",""
"78","Loch Kinord",682,"Lake","UK","Europe",56.68,-3.04,NA,NA,NA,NA,28.7,NA,NA,"210Pb","Anderson et al. 2014",""
"79","Loch Leven",683,"Lake","UK","Europe",56.2,-3.4,NA,NA,NA,NA,23.8,NA,NA,"210Pb","Anderson et al. 2014",""
"80","Loch Lomond North",684,"Lake","UK","Europe",56.1,-4.6,NA,NA,NA,NA,15.9,NA,NA,"210Pb","Anderson et al. 2014",""
"81","Loch Lomond South",685,"Lake","UK","Europe",56.1,-4.6,NA,NA,NA,NA,11.1,NA,NA,"210Pb","Anderson et al. 2014",""
"82","Loch Lubnaig",686,"Lake","UK","Europe",56.3,-4.3,NA,NA,NA,NA,25,NA,NA,"210Pb","Anderson et al. 2014",""
"83","Loch Maree",687,"Lake","UK","Europe",57.68,-5.43,NA,NA,NA,NA,3.4,NA,NA,"210Pb","Anderson et al. 2014",""
"84","Loch Monzievaird",688,"Lake","UK","Europe",56.39,-3.88,NA,NA,NA,NA,48.2,NA,NA,"210Pb","Anderson et al. 2014",""
"85","Loch nan Gad",689,"Lake","UK","Europe",55.76,-5.53,NA,NA,NA,NA,46.6,NA,NA,"210Pb","Anderson et al. 2014",""
"86","Loch of Skene",690,"Lake","UK","Europe",57.16,-2.36,NA,NA,NA,NA,35.2,NA,NA,"210Pb","Anderson et al. 2014",""
"87","Loch of the Lowes",691,"Lake","UK","Europe",56.58,-3.55,NA,NA,NA,NA,14.7,NA,NA,"210Pb","Anderson et al. 2014",""
"88","Loch Shiel",692,"Lake","UK","Europe",56.8,-5.57,NA,NA,NA,NA,8.4,NA,NA,"210Pb","Anderson et al. 2014",""
"89","Loch Ussie",693,"Lake","UK","Europe",57.58,-4.5,NA,NA,NA,NA,39.7,NA,NA,"210Pb","Anderson et al. 2014",""
"90","LochEck",694,"Lake","UK","Europe",56.1,-4.99,NA,NA,NA,NA,20.4,NA,NA,"210Pb","Anderson et al. 2014",""
"91","Lough Allen",695,"Lake","Ireland","Europe",54.12,-8.05,NA,NA,NA,NA,65.9,NA,NA,"210Pb","Anderson et al. 2014",""
"92","Lough Ballywillin",696,"Lake","Ireland","Europe",53.78,-7.42,NA,NA,NA,NA,219.1,NA,NA,"210Pb","Anderson et al. 2014",""
"93","Lough Brantry",697,"Lake","UK","Europe",54.43,-6.85,NA,NA,NA,NA,41.3,NA,NA,"210Pb","Anderson et al. 2014",""
"94","Lough Creeve",698,"Lake","UK","Europe",54.4,-6.87,NA,NA,NA,NA,60.8,NA,NA,"210Pb","Anderson et al. 2014",""
"95","Lough Heron",699,"Lake","Ireland","Europe",54.3,-7.1,NA,NA,NA,NA,59.2,NA,NA,"210Pb","Anderson et al. 2014",""
"96","Lough Melvin",700,"Lake","Ireland","Europe",54.41,-8.12,NA,NA,NA,NA,17.4,NA,NA,"210Pb","Anderson et al. 2014",""
"97","Lough Oughter",701,"Lake","Ireland","Europe",54.02,-7.48,NA,NA,NA,NA,94.4,NA,NA,"210Pb","Anderson et al. 2014",""
"98","Lough Patrick",702,"Lake","UK","Europe",54.1,-6.4,NA,NA,NA,NA,32.2,NA,NA,"210Pb","Anderson et al. 2014",""
"99","Loweswater",703,"Lake","UK","Europe",54.59,-3.36,NA,NA,NA,NA,11.7,NA,NA,"210Pb","Anderson et al. 2014",""
"100","Maarseveense Plassen",704,"Lake","Netherlands","Europe",52.14,5.09,NA,NA,NA,NA,4.4,NA,NA,"210Pb","Anderson et al. 2014",""
"101","Manor House Lower L. Erne",705,"Lake","UK","Europe",54.42,-7.7,NA,NA,NA,NA,117.7,NA,NA,"210Pb","Anderson et al. 2014",""
"102","Marsworth Reservoir",706,"Reservoir","UK","Europe",51.81,-0.67,NA,NA,NA,NA,103.1,NA,NA,"210Pb","Anderson et al. 2014",""
"103","Mill Loch",707,"Lake","UK","Europe",55.13,-3.45,NA,NA,NA,NA,36.3,NA,NA,"210Pb","Anderson et al. 2014",""
"104","Monk Myre",708,"Lake","UK","Europe",56.57,-3.29,NA,NA,NA,NA,115.8,NA,NA,"210Pb","Anderson et al. 2014",""
"105","Planina pri Jezeru",709,"Lake","Slovenia","Europe",46.31,13.83,NA,NA,NA,NA,7.9,NA,NA,"210Pb","Anderson et al. 2014",""
"106","Ponte Tresa Basin",710,"Lake","Switzerland","Europe",45.97,8.87,NA,NA,NA,NA,280.5,NA,NA,"210Pb","Anderson et al. 2014",""
"107","Ravn",711,"Lake","Denmark","Europe",56.11,9.84,NA,NA,NA,NA,37.5,NA,NA,"210Pb","Anderson et al. 2014",""
"108","Rollesby Broad",712,"Lake","UK","Europe",52.68,1.64,NA,NA,NA,NA,83.2,NA,NA,"210Pb","Anderson et al. 2014",""
"109","Rotsee",713,"Lake","Switzerland","Europe",47.07,8.32,NA,NA,NA,NA,145.3,NA,NA,"210Pb","Anderson et al. 2014",""
"110","Skanderborg",714,"Lake","Denmark","Europe",56.02,9.94,NA,NA,NA,NA,55.1,NA,NA,"210Pb","Anderson et al. 2014",""
"111","Slapton Ley",715,"Lake","UK","Europe",50.28,-3.65,NA,NA,NA,NA,51.2,NA,NA,"210Pb","Anderson et al. 2014",""
"112","Sogaard",716,"Lake","Denmark","Europe",54.93,9.44,NA,NA,NA,NA,230.2,NA,NA,"210Pb","Anderson et al. 2014",""
"113","Soppensee",717,"Lake","Switzerland","Europe",47.09,8.08,NA,NA,NA,NA,84.1,NA,NA,"210Pb","Anderson et al. 2014",""
"114","St.Moritzersee",718,"Lake","Switzerland","Europe",46.49,9.85,NA,NA,NA,NA,216.4,NA,NA,"210Pb","Anderson et al. 2014",""
"115","Tongree Upper L. Erne",719,"Lake","Ireland","Europe",54.1,-7.3,NA,NA,NA,NA,130.8,NA,NA,"210Pb","Anderson et al. 2014",""
"116","Torup",720,"Lake","Denmark","Europe",55.3,11.99,NA,NA,NA,NA,16.3,NA,NA,"210Pb","Anderson et al. 2014",""
"117","Upper Lough Macnean",721,"Lake","Ireland","Europe",54.3,-7.95,NA,NA,NA,NA,32.5,NA,NA,"210Pb","Anderson et al. 2014",""
"118","Upton Broad",722,"Lake","UK","Europe",52.67,1.53,NA,NA,NA,NA,110.4,NA,NA,"210Pb","Anderson et al. 2014",""
"119","Vesterborg",723,"Lake","Germany","Europe",54.5,11.2,NA,NA,NA,NA,59.9,NA,NA,"210Pb","Anderson et al. 2014",""
"120","Vitznau Basin",724,"Lake","Switzerland","Europe",47.02,8.43,NA,NA,NA,NA,119.9,NA,NA,"210Pb","Anderson et al. 2014",""
"121","White Loch",725,"Lake","UK","Europe",56.57,-3.35,NA,NA,NA,NA,24.7,NA,NA,"210Pb","Anderson et al. 2014",""
"122","White Lough",726,"Lake","Ireland","Europe",54.11,-6.98,NA,NA,NA,NA,37.7,NA,NA,"210Pb","Anderson et al. 2014",""
"123","Wroxham Broad",727,"Lake","UK","Europe",52.7,1.42,NA,NA,NA,NA,311.3,NA,NA,"210Pb","Anderson et al. 2014",""
"124","Eckarfjärden",255,"Lake","Sweden","Europe",60.37,18.2,NA,NA,NA,NA,8.21,NA,NA,"210Pb","Andersson & Sobek 2006",""
"125","Gollinsee",341,"Lake","Germany","Europe",53.02,13.58,NA,NA,NA,NA,196,191,102.62,"210Pb and 137Cs","Brothers et al. 2013",""
"126","Schulzensee",346,"Lake","Germany","Europe",53.23,13.27,NA,NA,NA,NA,53,285,18.6,"210Pb and 137Cs","Brothers et al. 2013",""
"127","Svarttjärn",347,"Lake","Sweden","Europe",59.89,15.26,NA,0.18,NA,17.34,3.98,NA,NA,"210Pb","Chmiel et al. 2015",""
"128","Svarttjärn",347,"Lake","Sweden","Europe",59.89,15.26,NA,0.07,NA,28.72,5.09,NA,NA,"14C","Chmiel et al. 2015",""
"129","Gäddtjärn",340,"Lake","Sweden","Europe",59.86,15.18,NA,0.05,NA,28.07,8.81,NA,NA,"210Pb","Chmiel et al. 2015",""
"130","Gäddtjärn",340,"Lake","Sweden","Europe",59.86,15.18,NA,0.07,NA,25.4,5.3,NA,NA,"14C","Chmiel et al. 2015",""
"131","Lilla Sångaren",343,"Lake","Sweden","Europe",59.9,15.39,NA,0.06,NA,18.78,4.48,NA,NA,"210Pb","Chmiel et al. 2015",""
"132","Lilla Sångaren",343,"Lake","Sweden","Europe",59.9,15.39,NA,0.06,NA,22.77,2.35,NA,NA,"14C","Chmiel et al. 2015",""
"133","Lago Santa Ninha TA11",373.1,"Lake","Brazil","S. America",-2.11,-55.43,NA,NA,NA,0.83,91,NA,NA,"210Pb and 14C","Cordeiro et al. 2008",""
"134","Lago Acarabixi",376.1,"Lake","Brazil","S. America",-0.35,-64.5,NA,NA,NA,25,265,NA,NA,"210Pb and 14C","Cordeiro et al. 2008",""
"135","Alta Floresta",627,"Reservoir","Brazil","S. America",-9.97,-55.82,NA,NA,NA,13.4,433,NA,NA,"210Pb and 14C","Cordeiro et al. 2008",""
"136","Carajás",629,"Lake","Brazil","S. America",-6.11,-50.19,NA,NA,NA,45.6,21.3,NA,NA,"210Pb and 14C","Cordeiro et al. 2008",""
"137","Humaitá",631,"Lake","Brazil","S. America",-8.17,-63.78,NA,NA,NA,5.39,12.65,NA,NA,"210Pb and 14C","Cordeiro et al. 2008",""
"138","Lago Caracarana",632,"Lake","Brazil","S. America",3.85,-59.78,NA,NA,NA,10,7.5,NA,NA,"210Pb and 14C","Cordeiro et al. 2008",""
"139","Lagoa da Pata",633,"Lake","Brazil","S. America",-20.02,-45.54,NA,NA,NA,36,4.16,NA,NA,"210Pb and 14C","Cordeiro et al. 2008",""
"140","Agnes",2,"Lake","USA","N. America",48.47,-92.81,NA,NA,NA,21.97,25.89,NA,NA,"210Pb and 137Cs","Dietz et al. 2015",""
"141","Alton",4,"Lake","USA","N. America",47.86,-90.91,NA,NA,NA,18.93,8.39,NA,NA,"210Pb and 137Cs","Dietz et al. 2015",""
"142","August",5,"Lake","USA","N. America",47.76,-91.61,NA,NA,NA,13.84,29.45,NA,NA,"210Pb and 137Cs","Dietz et al. 2015","D2008_1"
"143","Bass",8,"Lake","USA","N. America",43.82,-94.08,NA,NA,NA,6.26,56.43,NA,NA,"210Pb and 137Cs","Dietz et al. 2015","D2008_1"
"144","Battle Creek",9,"Lake","USA","N. America",44.95,-92.97,NA,NA,NA,14.64,61.12,NA,NA,"210Pb and 137Cs","Dietz et al. 2015",""
"145","Bean",10,"Lake","USA","N. America",44.07,-95.37,NA,NA,NA,6.77,65.28,NA,NA,"210Pb and 137Cs","Dietz et al. 2015","D2008_1"
"146","Bean",10,"Lake","USA","N. America",47.31,-91.3,NA,NA,NA,19.06,27.64,NA,NA,"210Pb and 137Cs","Dietz et al. 2015",""
"147","Bear",11,"Lake","USA","N. America",47.28,-91.34,NA,NA,NA,15.2,19.51,NA,NA,"210Pb and 137Cs","Dietz et al. 2015","D2008_1"
"148","Beaver",12.2,"Reservoir","USA","N. America",43.89,-93.35,NA,NA,NA,7,51.72,NA,NA,"210Pb and 137Cs","Dietz et al. 2015",""
"149","Big Carnelian",15,"Lake","USA","N. America",45.13,-92.81,NA,NA,NA,13.01,22.64,NA,NA,"210Pb and 137Cs","Dietz et al. 2015","D2008_1"
"150","Big Marine",16,"Lake","USA","N. America",45.22,-92.86,NA,NA,NA,15.32,55.06,NA,NA,"210Pb and 137Cs","Dietz et al. 2015",""
"151","Big Sandy",17,"Reservoir","USA","N. America",46.77,-93.28,NA,NA,NA,12.26,26.33,NA,NA,"210Pb and 137Cs","Dietz et al. 2015",""
"152","Brule",21,"Lake","USA","N. America",47.93,-90.67,NA,NA,NA,13.41,13.97,NA,NA,"210Pb and 137Cs","Dietz et al. 2015","D2008_1"
"153","Buck",22,"Lake","USA","N. America",47.54,-93.19,NA,NA,NA,19.98,23.91,NA,NA,"210Pb and 137Cs","Dietz et al. 2015","D2008_1"
"154","Calhoun",25,"Lake","USA","N. America",44.94,-93.31,NA,NA,NA,9.89,25.79,NA,NA,"210Pb and 137Cs","Dietz et al. 2015","D2008_1"
"155","Carver",26,"Lake","USA","N. America",44.91,-92.98,NA,NA,NA,5.61,40.21,NA,NA,"210Pb and 137Cs","Dietz et al. 2015","D2008_1"
"156","Christmas",30,"Lake","USA","N. America",44.9,-93.54,NA,NA,NA,9.46,26.36,NA,NA,"210Pb and 137Cs","Dietz et al. 2015",""
"157","Cruiser",36,"Lake","USA","N. America",48.5,-92.81,NA,NA,NA,14.89,20.76,NA,NA,"210Pb and 137Cs","Dietz et al. 2015","D2008_1"
"158","Dark",38,"Lake","USA","N. America",47.64,-92.78,NA,NA,NA,11.86,34,NA,NA,"210Pb and 137Cs","Dietz et al. 2015","D2008_1"
"159","Deepwater",39,"Lake","USA","N. America",47.62,-92.82,NA,NA,NA,26.95,19.14,NA,NA,"210Pb and 137Cs","Dietz et al. 2015",""
"160","Diamond",40,"Reservoir","USA","N. America",45.18,-94.84,NA,NA,NA,9.53,49.61,NA,NA,"210Pb and 137Cs","Dietz et al. 2015",""
"161","Dickman",41,"Lake","USA","N. America",44.86,-93.08,NA,NA,NA,14.26,35.37,NA,NA,"210Pb and 137Cs","Dietz et al. 2015",""
"162","Dixon",42,"Lake","USA","N. America",47.6,-94.29,NA,NA,NA,15.28,49.46,NA,NA,"210Pb and 137Cs","Dietz et al. 2015","D2008_1"
"163","Duck",44,"Lake","USA","N. America",44.22,-93.82,NA,NA,NA,8.69,81.39,NA,NA,"210Pb and 137Cs","Dietz et al. 2015",""
"164","Dunns",45,"Lake","USA","N. America",45.16,-94.43,NA,NA,NA,8.83,88.64,NA,NA,"210Pb and 137Cs","Dietz et al. 2015","D2008_1"
"165","Dyers",46,"Lake","USA","N. America",47.53,-90.98,NA,NA,NA,11.98,22.03,NA,NA,"210Pb and 137Cs","Dietz et al. 2015","D2008_1"
"166","East Boot",47,"Lake","USA","N. America",45.16,-92.83,NA,NA,NA,20.49,48.21,NA,NA,"210Pb and 137Cs","Dietz et al. 2015","D2008_1"
"167","Edwards",49,"Lake","USA","N. America",45.51,-95.47,NA,NA,NA,10.77,58.97,NA,NA,"210Pb and 137Cs","Dietz et al. 2015","D2008_1"
"168","Ek",50,"Lake","USA","N. America",48.47,-92.84,NA,NA,NA,21.01,20.49,NA,NA,"210Pb and 137Cs","Dietz et al. 2015",""
"169","Elmo",51,"Lake","USA","N. America",44.98,-92.88,NA,NA,NA,6.08,39.05,NA,NA,"210Pb and 137Cs","Dietz et al. 2015",""
"170","First Crow Wing",57,"Lake","USA","N. America",46.84,-94.84,NA,NA,NA,16.83,51.49,NA,NA,"210Pb and 137Cs","Dietz et al. 2015","D2008_1"
"171","Fish",58,"Lake","USA","N. America",43.85,-95.05,NA,NA,NA,6.17,27.6,NA,NA,"210Pb and 137Cs","Dietz et al. 2015","D2008_1"
"172","Fish",58,"Lake","USA","N. America",44.82,-93.16,NA,NA,NA,15.62,58.96,NA,NA,"210Pb and 137Cs","Dietz et al. 2015","D2008_1"
"173","Forsythe",60,"Lake","USA","N. America",47.27,-93.6,NA,NA,NA,18.51,45.57,NA,NA,"210Pb and 137Cs","Dietz et al. 2015","D2008_1"
"174","Fox",64,"Lake","USA","N. America",43.68,-94.7,NA,NA,NA,6.55,53.87,NA,NA,"210Pb and 137Cs","Dietz et al. 2015","D2008_1"
"175","George",66,"Lake","USA","N. America",44.23,-93.87,NA,NA,NA,8.54,29.71,NA,NA,"210Pb and 137Cs","Dietz et al. 2015","D2008_1"
"176","George",66,"Lake","USA","N. America",45.24,-94.98,NA,NA,NA,8.84,53.3,NA,NA,"210Pb and 137Cs","Dietz et al. 2015",""
"177","Gervais",67,"Lake","USA","N. America",45.02,-93.07,NA,NA,NA,8.34,41.84,NA,NA,"210Pb and 137Cs","Dietz et al. 2015","D2008_1"
"178","Greenleaf",71,"Lake","USA","N. America",44.4,-93.63,NA,NA,NA,8.35,95.4,NA,NA,"210Pb and 137Cs","Dietz et al. 2015","D2008_1"
"179","Harriet",72,"Lake","USA","N. America",44.92,-93.3,NA,NA,NA,10.72,25.01,NA,NA,"210Pb and 137Cs","Dietz et al. 2015","D2008_1"
"180","Henderson",73,"Lake","USA","N. America",45.23,-94.99,NA,NA,NA,14.19,26.29,NA,NA,"210Pb and 137Cs","Dietz et al. 2015",""
"181","High Island",74,"Lake","USA","N. America",44.67,-94.21,NA,NA,NA,13.93,83.94,NA,NA,"210Pb and 137Cs","Dietz et al. 2015","F2014_1"
"182","Hjermstad",75,"Lake","USA","N. America",44.17,-95.97,NA,NA,NA,6.41,98.34,NA,NA,"210Pb and 137Cs","Dietz et al. 2015","F2014_1"
"183","Jessie",83,"Lake","USA","N. America",47.59,-93.82,NA,NA,NA,12.59,39.13,NA,NA,"210Pb and 137Cs","Dietz et al. 2015","F2014_1"
"184","Johanna",84,"Lake","USA","N. America",45.04,-93.17,NA,NA,NA,10.61,41.79,NA,NA,"210Pb and 137Cs","Dietz et al. 2015","F2014_1"
"185","Kabetogama",87,"Lake","USA","N. America",48.46,-93.04,NA,NA,NA,10.9,24.76,NA,NA,"210Pb and 137Cs","Dietz et al. 2015","F2014_1"
"186","Kreighle",88,"Lake","USA","N. America",45.58,-94.48,NA,NA,NA,22.45,51.13,NA,NA,"210Pb and 137Cs","Dietz et al. 2015","F2014_1"
"187","Lac La Croix",90,"Lake","USA","N. America",48.35,-92.11,NA,NA,NA,9.65,11.92,NA,NA,"210Pb and 137Cs","Dietz et al. 2015","F2014_1"
"188","Lady Slipper",91,"Lake","USA","N. America",44.57,-95.63,NA,NA,NA,6.6,57.7,NA,NA,"210Pb and 137Cs","Dietz et al. 2015","F2014_1"
"189","Little Bass",99,"Lake","USA","N. America",47.29,-93.6,NA,NA,NA,15.09,24.82,NA,NA,"210Pb and 137Cs","Dietz et al. 2015","F2014_1"
"190","Little Carnelian",100,"Lake","USA","N. America",45.12,-92.8,NA,NA,NA,15.51,19.12,NA,NA,"210Pb and 137Cs","Dietz et al. 2015","F2014_1"
"191","Little Long",101,"Lake","USA","N. America",44.95,-93.71,NA,NA,NA,12.47,22.75,NA,NA,"210Pb and 137Cs","Dietz et al. 2015","F2014_1"
"192","Little Lower Elk",102,"Lake","USA","N. America",45.93,-95.81,NA,NA,NA,9.67,46.77,NA,NA,"210Pb and 137Cs","Dietz et al. 2015",""
"193","Little Trout",104,"Lake","USA","N. America",48.4,-92.52,NA,NA,NA,12.39,8.46,NA,NA,"210Pb and 137Cs","Dietz et al. 2015","G2013_1"
"194","Little Turtle",105,"Lake","USA","N. America",45.88,-95.84,NA,NA,NA,12.53,55.76,NA,NA,"210Pb and 137Cs","Dietz et al. 2015",""
"195","Locator",107,"Lake","USA","N. America",48.54,-93.01,NA,NA,NA,21.63,8.76,NA,NA,"210Pb and 137Cs","Dietz et al. 2015","G2013_1"
"196","Loiten",108,"Lake","USA","N. America",48.53,-92.92,NA,NA,NA,21.47,7.15,NA,NA,"210Pb and 137Cs","Dietz et al. 2015","G2013_1"
"197","Lone Tree",109,"Lake","USA","N. America",44.69,-95.44,NA,NA,NA,7.73,91.15,NA,NA,"210Pb and 137Cs","Dietz et al. 2015","G2013_1"
"198","Long",110,"Lake","USA","N. America",45.33,-94.87,NA,NA,NA,10.57,16.01,NA,NA,"210Pb and 137Cs","Dietz et al. 2015","G2013_1"
"199","Long",110,"Lake","USA","N. America",47.22,-93.65,NA,NA,NA,20.17,22.47,NA,NA,"210Pb and 137Cs","Dietz et al. 2015","K2020_1"
"200","Long",110,"Lake","USA","N. America",47.28,-95.3,NA,NA,NA,9.4,25,NA,NA,"210Pb and 137Cs","Dietz et al. 2015","K2020_1"
"201","Loon",111,"Lake","USA","N. America",47.23,-93.65,NA,NA,NA,16.79,23.61,NA,NA,"210Pb and 137Cs","Dietz et al. 2015","K2020_1"
"202","Marcott",115,"Lake","USA","N. America",44.82,-93.07,NA,NA,NA,11.8,28.78,NA,NA,"210Pb and 137Cs","Dietz et al. 2015","K2020_1"
"203","Margaret",116,"Lake","USA","N. America",46.49,-94.36,NA,NA,NA,12.42,61.87,NA,NA,"210Pb and 137Cs","Dietz et al. 2015","K2020_1"
"204","McCarrons",118,"Lake","USA","N. America",45,-93.11,NA,NA,NA,12.27,29.66,NA,NA,"210Pb and 137Cs","Dietz et al. 2015","K2020_1"
"205","Middle Twin",122,"Lake","USA","N. America",45.04,-93.34,NA,NA,NA,14.37,53.96,NA,NA,"210Pb and 137Cs","Dietz et al. 2015","K2020_1"
"206","Miller",123,"Lake","USA","N. America",44.79,-93.74,NA,NA,NA,6.16,126.87,NA,NA,"210Pb and 137Cs","Dietz et al. 2015","K2020_1"
"207","Namakan",127,"Lake","USA","N. America",48.44,-92.58,NA,NA,NA,6.87,11.57,NA,NA,"210Pb and 137Cs","Dietz et al. 2015","K2020_1"
"208","Nelson",129,"Lake","USA","N. America",45.52,-95.45,NA,NA,NA,9.08,59.15,NA,NA,"210Pb and 137Cs","Dietz et al. 2015","K2020_1"
"209","Ninemile",130,"Lake","USA","N. America",47.58,-91.08,NA,NA,NA,22.48,22.45,NA,NA,"210Pb and 137Cs","Dietz et al. 2015","K2020_1"
"210","Nipisiquit",131,"Lake","USA","N. America",47.36,-91.25,NA,NA,NA,17.53,18.89,NA,NA,"210Pb and 137Cs","Dietz et al. 2015","K2020_1"
"211","Oak",133,"Lake","USA","N. America",44.54,-96.24,NA,NA,NA,7.79,53.62,NA,NA,"210Pb and 137Cs","Dietz et al. 2015","K2020_1"
"212","Ohlsrud",134,"Lake","USA","N. America",45.8,-96.05,NA,NA,NA,8.45,61.64,NA,NA,"210Pb and 137Cs","Dietz et al. 2015","K2020_1"
"213","Owasso",136,"Lake","USA","N. America",45.04,-93.12,NA,NA,NA,20.26,59.16,NA,NA,"210Pb and 137Cs","Dietz et al. 2015","K2020_1"
"214","Peary",138,"Lake","USA","N. America",48.53,-92.77,NA,NA,NA,12.32,25.93,NA,NA,"210Pb and 137Cs","Dietz et al. 2015","K2020_1"
"215","Peltier",139,"Lake","USA","N. America",45.18,-93.06,NA,NA,NA,13.24,67.43,NA,NA,"210Pb and 137Cs","Dietz et al. 2015","K2020_1"
"216","Portage",142,"Lake","USA","N. America",46.97,-95.12,NA,NA,NA,13.55,66.02,NA,NA,"210Pb and 137Cs","Dietz et al. 2015","K2020_1"
"217","Rainy",145,"Lake","USA","N. America",48.62,-93.01,NA,NA,NA,6.25,11.49,NA,NA,"210Pb and 137Cs","Dietz et al. 2015","K2020_1"
"218","Richardson",148,"Lake","USA","N. America",45.16,-94.44,NA,NA,NA,5.9,76.89,NA,NA,"210Pb and 137Cs","Dietz et al. 2015",""
"219","Round",149,"Lake","USA","N. America",45.56,-95.27,NA,NA,NA,7.38,36.11,NA,NA,"210Pb and 137Cs","Dietz et al. 2015","K2020_1"
"220","Round",149,"Lake","USA","N. America",47.21,-93.36,NA,NA,NA,22.36,62.27,NA,NA,"210Pb and 137Cs","Dietz et al. 2015","K2020_1"
"221","Ryan",151,"Lake","USA","N. America",48.52,-92.71,NA,NA,NA,20.87,25.41,NA,NA,"210Pb and 137Cs","Dietz et al. 2015","K2020_1"
"222","Sauk North",152,"Reservoir","USA","N. America",45.79,-94.94,NA,NA,NA,8.16,42.3,NA,NA,"210Pb and 137Cs","Dietz et al. 2015","K2020_1"
"223","Sawbill",153,"Lake","USA","N. America",47.88,-90.88,NA,NA,NA,14.13,21.25,NA,NA,"210Pb and 137Cs","Dietz et al. 2015","K2020_1"
"224","Schultz",154,"Lake","USA","N. America",44.78,-93.13,NA,NA,NA,13.08,28.83,NA,NA,"210Pb and 137Cs","Dietz et al. 2015","K2020_1"
"225","Shallow",155,"Lake","USA","N. America",47.13,-93.3,NA,NA,NA,16.95,22.4,NA,NA,"210Pb and 137Cs","Dietz et al. 2015",""
"226","Shingobee",157,"Lake","USA","N. America",47,-94.69,NA,NA,NA,10.19,36.26,NA,NA,"210Pb and 137Cs","Dietz et al. 2015","K2020_1"
"227","Shoepack",158,"Lake","USA","N. America",48.5,-92.88,NA,NA,NA,20.93,14.65,NA,NA,"210Pb and 137Cs","Dietz et al. 2015","K2020_1"
"228","Side",159,"Lake","USA","N. America",47.67,-93.02,NA,NA,NA,19.68,26,NA,NA,"210Pb and 137Cs","Dietz et al. 2015","K2020_1"
"229","Siseebakwet",161,"Lake","USA","N. America",47.16,-93.67,NA,NA,NA,8.78,28.16,NA,NA,"210Pb and 137Cs","Dietz et al. 2015","K2020_1"
"230","Snells (Guile)",162,"Lake","USA","N. America",47.24,-93.68,NA,NA,NA,24.31,33.77,NA,NA,"210Pb and 137Cs","Dietz et al. 2015",""
"231","Solem",163,"Lake","USA","N. America",45.81,-95.64,NA,NA,NA,12.22,41.51,NA,NA,"210Pb and 137Cs","Dietz et al. 2015","K2020_1"
"232","Speckled Trout",164,"Lake","USA","N. America",47.95,-89.85,NA,NA,NA,24.23,20.73,NA,NA,"210Pb and 137Cs","Dietz et al. 2015","K2020_1"
"233","Spectacle",165,"Lake","USA","N. America",45.58,-93.41,NA,NA,NA,23.93,40.33,NA,NA,"210Pb and 137Cs","Dietz et al. 2015","K2020_1"
"234","Spring",166,"Lake","USA","N. America",44.7,-93.47,NA,NA,NA,9.87,38.19,NA,NA,"210Pb and 137Cs","Dietz et al. 2015","K2020_1"
"235","Spring",166,"Lake","USA","N. America",47.51,-93.46,NA,NA,NA,27.54,53.56,NA,NA,"210Pb and 137Cs","Dietz et al. 2015","K2020_1"
"236","Square",168,"Lake","USA","N. America",45.16,-92.8,NA,NA,NA,14.05,14.07,NA,NA,"210Pb and 137Cs","Dietz et al. 2015","K2020_1"
"237","Stahl's",176,"Lake","USA","N. America",44.95,-94.42,NA,NA,NA,12.33,71.13,NA,NA,"210Pb and 137Cs","Dietz et al. 2015","K2020_1"
"238","Swamp",180,"Lake","USA","N. America",47.95,-89.86,NA,NA,NA,24.15,29.95,NA,NA,"210Pb and 137Cs","Dietz et al. 2015","K2020_1"
"239","Tanners",182,"Lake","USA","N. America",44.95,-92.98,NA,NA,NA,12.11,27.3,NA,NA,"210Pb and 137Cs","Dietz et al. 2015","K2020_1"
"240","Tettegouche",183,"Lake","USA","N. America",47.35,-91.27,NA,NA,NA,21.22,17.92,NA,NA,"210Pb and 137Cs","Dietz et al. 2015","K2020_1"
"241","Tooth",186,"Lake","USA","N. America",48.4,-92.64,NA,NA,NA,23.51,10.76,NA,NA,"210Pb and 137Cs","Dietz et al. 2015",""
"242","Turtle",189,"Lake","USA","N. America",45.1,-93.13,NA,NA,NA,20.32,35.24,NA,NA,"210Pb and 137Cs","Dietz et al. 2015",""
"243","Turtle A",189,"Lake","USA","N. America",45.88,-95.84,NA,NA,NA,5.98,64.37,NA,NA,"210Pb and 137Cs","Dietz et al. 2015",""
"244","Twin",190,"Lake","USA","N. America",44.99,-93.34,NA,NA,NA,13.57,40.81,NA,NA,"210Pb and 137Cs","Dietz et al. 2015",""
"245","Wakefield",195,"Lake","USA","N. America",45,-93.04,NA,NA,NA,8.6,24.84,NA,NA,"210Pb and 137Cs","Dietz et al. 2015",""
"246","West Twin",199,"Lake","USA","N. America",46.8,-92.59,NA,NA,NA,23.64,33.93,NA,NA,"210Pb and 137Cs","Dietz et al. 2015",""
"247","Willeys",201,"Lake","USA","N. America",47.54,-93.46,NA,NA,NA,29.24,24.54,NA,NA,"210Pb and 137Cs","Dietz et al. 2015",""
"248","Williams",203,"Lake","USA","N. America",46.96,-94.67,NA,NA,NA,24.58,31.89,NA,NA,"210Pb and 137Cs","Dietz et al. 2015",""
"249","Wilson",204,"Reservoir","USA","N. America",47.68,-91.08,NA,NA,NA,10.76,18.46,NA,NA,"210Pb and 137Cs","Dietz et al. 2015",""
"250","Windy",205,"Lake","USA","N. America",47.73,-91.08,NA,NA,NA,12.21,15.65,NA,NA,"210Pb and 137Cs","Dietz et al. 2015",""
"251","Winnibigoshish",206,"Lake","USA","N. America",47.44,-94.2,NA,NA,NA,16.35,35.63,NA,NA,"210Pb and 137Cs","Dietz et al. 2015",""
"252","Winona",208,"Lake","USA","N. America",45.88,-95.4,NA,NA,NA,8.29,57.85,NA,NA,"210Pb and 137Cs","Dietz et al. 2015",""
"253","Wolf",210,"Lake","USA","N. America",43.86,-95.09,NA,NA,NA,7.14,109.03,NA,NA,"210Pb and 137Cs","Dietz et al. 2015",""
"254","Wolf (Johnson)",211,"Lake","USA","N. America",47.38,-91.19,NA,NA,NA,18.58,19.68,NA,NA,"210Pb and 137Cs","Dietz et al. 2015",""
"255","Mille Lacs",352,"Lake","USA","N. America",46.23,-93.64,NA,NA,NA,15.68,23.17,NA,NA,"210Pb and 137Cs","Dietz et al. 2015",""
"256","Backbone Lake",6,"Reservoir","USA","N. America",42.6,-91.54,22.53,1.2,NA,4.04,1089,NA,NA,"Bathymetric surveys","Downing et al. 2008",""
"257","Barney Mundt",7,"Private impoundment","USA","N. America",42.03,-95.31,121.88,0.88,NA,4.37,4864,NA,NA,"Bathymetric surveys","Downing et al. 2008",""
"258","Black Hawk Lake",18,"Lake","USA","N. America",42.3,-95.02,12.82,0.71,NA,4.6,419,NA,NA,"Bathymetric surveys","Downing et al. 2008",""
"259","C. A. Stiles",24,"Private impoundment","USA","N. America",42.75,-95.55,19.26,0.84,NA,4.41,702,NA,NA,"Bathymetric surveys","Downing et al. 2008",""
"260","Charles Fienhold",29,"Private impoundment","USA","N. America",42.03,-95.31,383.75,1.01,NA,4.37,17392,NA,NA,"Bathymetric surveys","Downing et al. 2008",""
"261","Coralville Reservoir",34,"Reservoir","USA","N. America",41.81,-91.58,50.03,0.68,NA,0.42,148,NA,NA,"Bathymetric surveys","Downing et al. 2008",""
"262","Don Williams Lake",43,"Lake","USA","N. America",42.12,-94.02,29.11,0.55,NA,4.69,755,NA,NA,"Bathymetric surveys","Downing et al. 2008",""
"263","Fairfield 3",54,"Reservoir","USA","N. America",41.01,-91.96,21.11,0.83,NA,4.41,773,NA,NA,"Bathymetric surveys","Downing et al. 2008",""
"264","Farmer's Ditch",55,"Private impoundment","USA","N. America",42.32,-95.98,33.46,1.09,NA,6.1,2227,NA,NA,"Bathymetric surveys","Downing et al. 2008",""
"265","Fred Hollrah",65,"Private impoundment","USA","N. America",43.05,-91.39,167,0.93,NA,4.37,6537,NA,NA,"Bathymetric surveys","Downing et al. 2008",""
"266","Honey Creek F-1",76,"Lake","USA","N. America",41.03,-93.46,35,1.06,NA,4.37,1640,NA,NA,"Bathymetric surveys","Downing et al. 2008",""
"267","Jones Creek Reservoir",86,"Reservoir","USA","N. America",41.87,-95.93,79.87,0.88,NA,4.41,3093,NA,NA,"Bathymetric surveys","Downing et al. 2008",""
"268","Lower Pine Lake",114,"Lake","USA","N. America",45.24,-92.57,109.89,1.26,NA,4.18,5771,NA,NA,"Bathymetric surveys","Downing et al. 2008","O2012_1"
"269","Max Miller 5",117,"Private impoundment","USA","N. America",41.39,-95.48,108.46,1.18,NA,4.37,5593,NA,NA,"Bathymetric surveys","Downing et al. 2008",""
"270","Panorama Lake",137,"Lake","USA","N. America",41.72,-94.41,115.95,1.2,NA,5.02,6987,NA,NA,"Bathymetric surveys","Downing et al. 2008",""
"271","Prairie Rose Lake",143,"Lake","USA","N. America",41.6,-95.22,49.77,1.47,NA,3.9,2862,NA,NA,"Bathymetric surveys","Downing et al. 2008",""
"272","Springbrook Lake",167,"Lake","USA","N. America",41.75,-94.48,29.13,0.77,NA,4.93,1111,NA,NA,"Bathymetric surveys","Downing et al. 2008","R2017_1"
"273","Swan Lake",181,"Reservoir","USA","N. America",42.04,-94.85,7.51,0.88,NA,5.35,353,NA,NA,"Bathymetric surveys","Downing et al. 2008","R2017_1"
"274","Theobold C",184,"Private impoundment","USA","N. America",42.32,-95.98,34.63,1.09,NA,4.37,1635,NA,NA,"Bathymetric surveys","Downing et al. 2008","S2014_1"
"275","Theobold Main",184,"Private impoundment","USA","N. America",42.32,-95.98,49.34,1.16,NA,4.41,2519,NA,NA,"Bathymetric surveys","Downing et al. 2008","S2014_1"
"276","Tracy North",187,"Private impoundment","USA","N. America",42.03,-95.31,56.11,0.87,NA,4.37,2122,NA,NA,"Bathymetric surveys","Downing et al. 2008","S2014_1"
"277","Union Grove Lake",191,"Lake","USA","N. America",42.13,-92.73,30.96,0.69,NA,4.55,958,NA,NA,"Bathymetric surveys","Downing et al. 2008","S2014_1"
"278","Wapello Lake",196,"Lake","USA","N. America",40.81,-92.58,14.22,0.52,NA,6.85,508,NA,NA,"Bathymetric surveys","Downing et al. 2008","S2014_1"
"279","Wilbur Meyer",200,"Private impoundment","USA","N. America",42.03,-95.31,149,0.9,NA,4.37,5647,NA,NA,"Bathymetric surveys","Downing et al. 2008","S2014_1"
"280","William Esbeck",202,"Private impoundment","USA","N. America",41.72,-94.93,111,0.9,NA,4.37,4201,NA,NA,"Bathymetric surveys","Downing et al. 2008","S2012_1"
"281","Alinen Rautjärvi",334,"Lake","Finland","Europe",61.19,25.1,0.2,NA,NA,NA,4,NA,NA,"Thickness+lake age","Einola et al. 2011","S2009_1"
"282","Ekojärvi",335,"Lake","Finland","Europe",61.2,24.95,0.2,NA,NA,NA,6,NA,NA,"Thickness+lake age","Einola et al. 2011","S2009_1"
"283","Kuohijärvi",336,"Lake","Finland","Europe",61.24,24.87,0.2,NA,NA,NA,1,NA,NA,"Thickness+lake age","Einola et al. 2011","S2009_1"
"284","Valkea-Kotinen",337,"Lake","Finland","Europe",61.24,25.06,0.14,NA,NA,NA,3,NA,NA,"Thickness+lake age","Einola et al. 2011","S2009_1"
"285","Brendan",20,"Lake","Canada","N. America",51.5,-75.5,NA,NA,NA,NA,9.6,36.13,26.57,"210Pb+sediment mapping","Ferland et al. 2014","S2009_1"
"286","Clarkie",31,"Lake","Canada","N. America",52.22,-75.5,NA,NA,NA,NA,8.94,47.76,18.72,"210Pb+sediment mapping","Ferland et al. 2014","S2009_1"
"287","EM-320",52,"Lake","Canada","N. America",51.5,-75.5,NA,NA,NA,NA,60.45,48.71,124.1,"210Pb+sediment mapping","Ferland et al. 2014","S2009_1"
"288","Labyrinthe",89,"Lake","Canada","N. America",51.5,-75.5,NA,NA,NA,NA,45.42,31.64,143.55,"210Pb+sediment mapping","Ferland et al. 2014","S2009_1"
"289","Lake 34",92,"Lake","Canada","N. America",51.98,-75.77,NA,NA,NA,NA,11.72,13.34,87.86,"210Pb+sediment mapping","Ferland et al. 2014","S2009_1"
"290","Lake 40",93,"Lake","Canada","N. America",52.03,-75.52,NA,NA,NA,NA,17.45,11.66,149.66,"210Pb+sediment mapping","Ferland et al. 2014","S2009_1"
"291","Lake 60",94,"Lake","Canada","N. America",52.23,-75.76,NA,NA,NA,NA,8.79,9.68,90.81,"210Pb+sediment mapping","Ferland et al. 2014","S2009_1"
"292","Lake 66",95,"Lake","Canada","N. America",51.96,-76.01,NA,NA,NA,NA,18.77,28.85,65.06,"210Pb+sediment mapping","Ferland et al. 2014","S2009_1"
"293","Lake 8",96,"Lake","Canada","N. America",52.13,-75.72,NA,NA,NA,NA,17.65,13.29,132.81,"210Pb+sediment mapping","Ferland et al. 2014","S2009_1"
"294","Mistumis",125,"Lake","Canada","N. America",52.15,-76.17,NA,NA,NA,NA,6.14,22.19,27.67,"210Pb+sediment mapping","Ferland et al. 2014","S2009_1"
"295","Natel",128,"Lake","Canada","N. America",51.5,-75.5,NA,NA,NA,NA,10.54,19.28,54.67,"210Pb+sediment mapping","Ferland et al. 2014","S2009_1"
"296","Chaohu Lake",234,"Lake","China","Asia",31.55,117.57,NA,NA,NA,0.56,9.8,NA,NA,"210Pb and 137Cs","Gui et al. 2013","S2009_1"
"297","Honghu Lake",237,"Lake","China","Asia",29.85,113.34,1.6,NA,NA,NA,113.2,NA,NA,"210Pb and 137Cs","Gui et al. 2013","S2009_1"
"298","Nanyihu Lake",242,"Lake","China","Asia",31.09,118.98,NA,NA,NA,0.98,28.9,NA,NA,"210Pb and 137Cs","Gui et al. 2013","S2009_1"
"299","Shijiuhu Lake",244,"Lake","China","Asia",29.83,115.02,NA,NA,NA,1.25,25.4,NA,NA,"210Pb and 137Cs","Gui et al. 2013","S2009_1"
"300","Taihu Lake",246,"Lake","China","Asia",31.26,120.21,NA,NA,NA,0.42,18.6,NA,NA,"210Pb and 137Cs","Gui et al. 2013","S2009_1"
"301","Taihu Lake",246,"Lake","China","Asia",31.26,120.21,NA,NA,NA,0.51,16.7,NA,NA,"210Pb and 137Cs","Gui et al. 2013","S2009_1"
"302","Black Hawk Lake",18,"Lake","USA","N. America",42.3,-95.02,NA,NA,NA,8.3,99.55,NA,NA,"210Pb","Heathcote et al. 2013","S2011_1"
"303","Center Lake",27,"Lake","USA","N. America",43.42,-95.13,NA,NA,NA,4.84,62.87,NA,NA,"210Pb","Heathcote et al. 2013","S2011_1"
"304","Cornelia Lake",35,"Lake","USA","N. America",42.79,-93.69,NA,NA,NA,20.09,202.94,NA,NA,"210Pb","Heathcote et al. 2013","S2011_1"
"305","Crystal Lake",37,"Lake","USA","N. America",43.23,-93.79,NA,NA,NA,4.13,105.73,NA,NA,"210Pb","Heathcote et al. 2013","S2011_1"
"306","East Lake Okoboji",48,"Lake","USA","N. America",43.37,-95.12,NA,NA,NA,6.22,88.28,NA,NA,"210Pb","Heathcote et al. 2013","X2015_1"
"307","Five Island Lake",59,"Lake","USA","N. America",43.12,-94.68,NA,NA,NA,35.6,818.72,NA,NA,"210Pb","Heathcote et al. 2013",""
"308","High Lake",74,"Lake","USA","N. America",43.3,-94.7,NA,NA,NA,9.45,175.84,NA,NA,"210Pb","Heathcote et al. 2013","X2015_2"
"309","Ingham Lake",80,"Lake","USA","N. America",43.32,-94.7,NA,NA,NA,27.89,273.37,NA,NA,"210Pb","Heathcote et al. 2013","X2015_3"
"310","Iowa Lake",81,"Lake","USA","N. America",43.5,-94.46,NA,NA,NA,6.35,138.43,NA,NA,"210Pb","Heathcote et al. 2013","X2013_1"
"311","Little Spirit Lake",103,"Lake","USA","N. America",43.51,-95.13,NA,NA,NA,5.73,110.55,NA,NA,"210Pb","Heathcote et al. 2013",""
"312","Little Wall Lake",106,"Lake","USA","N. America",42.27,-93.64,NA,NA,NA,29.89,188.33,NA,NA,"210Pb","Heathcote et al. 2013",""
"313","Lost Island Lake",112,"Lake","USA","N. America",43.17,-94.9,NA,NA,NA,15.78,138.88,NA,NA,"210Pb","Heathcote et al. 2013","K2013_1"
"314","Lower Gar Lake",113,"Lake","USA","N. America",43.35,-95.12,NA,NA,NA,10.92,200.99,NA,NA,"210Pb","Heathcote et al. 2013","K2013_1"
"315","Burt Lake",119,"Lake","USA","N. America",43.5,-94.38,NA,NA,NA,3.28,110.86,NA,NA,"210Pb","Heathcote et al. 2013","K2013_1"
"316","Minnewashta Lake",124,"Lake","USA","N. America",43.36,-95.12,NA,NA,NA,2.67,69.3,NA,NA,"210Pb","Heathcote et al. 2013","K2013_1"
"317","Morse Lake",126,"Lake","USA","N. America",42.84,-93.69,NA,NA,NA,2.5,43.23,NA,NA,"210Pb","Heathcote et al. 2013","K2013_1"
"318","North Twin Lake",132,"Lake","USA","N. America",42.48,-94.64,NA,NA,NA,10.56,122.45,NA,NA,"210Pb","Heathcote et al. 2013","K2013_1"
"319","Pickerel Lake",140,"Lake","USA","N. America",42.9,-94.92,NA,NA,NA,9.91,158.51,NA,NA,"210Pb","Heathcote et al. 2013","K2013_1"
"320","Rice Lake",147,"Lake","USA","N. America",43.39,-93.5,NA,NA,NA,29.57,109.4,NA,NA,"210Pb","Heathcote et al. 2013","K2013_1"
"321","Silver Lake (Dickinson)",160,"Lake","USA","N. America",43.44,-95.35,NA,NA,NA,12.5,132.48,NA,NA,"210Pb","Heathcote et al. 2013","K2013_1"
"322","Silver Lake (Palo Alto)",160,"Lake","USA","N. America",43.03,-94.88,NA,NA,NA,5.36,110.97,NA,NA,"210Pb","Heathcote et al. 2013","K2013_1"
"323","Silver Lake (Worth)",160,"Lake","USA","N. America",43.48,-93.42,NA,NA,NA,131.6,65.8,NA,NA,"210Pb","Heathcote et al. 2013","K2013_1"
"324","Trumbull Lake",188,"Lake","USA","N. America",43.2,-94.95,NA,NA,NA,7.47,113.47,NA,NA,"210Pb","Heathcote et al. 2013","K2013_1"
"325","Upper Gar Lake",192,"Lake","USA","N. America",43.37,-95.12,NA,NA,NA,18.45,130.99,NA,NA,"210Pb","Heathcote et al. 2013","K2013_1"
"326","Virgin Lake",194,"Lake","USA","N. America",43.1,-94.89,NA,NA,NA,9.69,130.85,NA,NA,"210Pb","Heathcote et al. 2013","K2013_1"
"327","West Lake Okoboji",197,"Lake","USA","N. America",43.37,-95.15,NA,NA,NA,6.81,67.45,NA,NA,"210Pb","Heathcote et al. 2013","K2013_1"
"328","West Swan Lake",198,"Lake","USA","N. America",43.35,-94.69,NA,NA,NA,15.57,147.94,NA,NA,"210Pb","Heathcote et al. 2013","K2013_1"
"329","West Twin Lake",199,"Lake","USA","N. America",42.94,-93.73,NA,NA,NA,7.08,145.22,NA,NA,"210Pb","Heathcote et al. 2013","K2013_1"
"330","Tuttle Lake",622,"Lake","USA","N. America",43.5,-94.6,NA,NA,NA,7.06,127.09,NA,NA,"210Pb","Heathcote et al. 2013","K2013_1"
"331","Diamond Lake",729,"Lake","USA","N. America",43.48,-95.19,NA,NA,NA,5.65,113.59,NA,NA,"210Pb","Heathcote et al. 2013","K2013_1"
"332","August",5,"Lake","USA","N. America",47.76,-91.61,NA,NA,NA,29.5,31,NA,NA,"210Pb","Hobbs et al. 2013 ","K2013_1"
"333","Bass 1",8,"Lake","USA","N. America",44.92,-85.88,NA,NA,NA,66.8,25,NA,NA,"210Pb","Hobbs et al. 2013 ","K2013_1"
"334","Bass 2",8,"Lake","USA","N. America",43.82,-94.08,NA,NA,NA,13.3,48,NA,NA,"210Pb","Hobbs et al. 2013 ","K2013_1"
"335","Bean",10,"Lake","USA","N. America",44.07,-95.37,NA,NA,NA,17,75,NA,NA,"210Pb","Hobbs et al. 2013 ","K2013_1"
"336","Beaver 1",12.1,"Reservoir","USA","N. America",43.89,-93.35,NA,NA,NA,14.9,45,NA,NA,"210Pb","Hobbs et al. 2013 ","K2013_1"
"337","Clear",32,"Lake","USA","N. America",44.46,-94.51,NA,NA,NA,18.8,109,NA,NA,"210Pb","Hobbs et al. 2013 ","K2013_1"
"338","Cruiser",36,"Lake","USA","N. America",48.5,-92.8,NA,NA,NA,31.8,26,NA,NA,"210Pb","Hobbs et al. 2013 ","K2013_1"
"339","Diamond",40,"Reservoir","USA","N. America",45.18,-94.84,NA,NA,NA,20.5,21,NA,NA,"210Pb","Hobbs et al. 2013 ","K2013_1"
"340","Duck",44,"Lake","USA","N. America",44.22,-93.82,NA,NA,NA,18.7,101,NA,NA,"210Pb","Hobbs et al. 2013 ","K2013_1"
"341","Dunns",45,"Lake","USA","N. America",45.16,-94.43,NA,NA,NA,19.2,86,NA,NA,"210Pb","Hobbs et al. 2013 ","K2013_1"
"342","Edwards",49,"Lake","USA","N. America",45.51,-95.47,NA,NA,NA,23,73,NA,NA,"210Pb","Hobbs et al. 2013 ","K2013_1"
"343","Ek",50,"Lake","USA","N. America",48.47,-92.84,NA,NA,NA,45.1,25,NA,NA,"210Pb","Hobbs et al. 2013 ","K2013_1"
"344","Fish",58,"Lake","USA","N. America",44.82,-93.16,NA,NA,NA,13.2,56,NA,NA,"210Pb","Hobbs et al. 2013 ","K2013_1"
"345","Fox",64,"Lake","USA","N. America",43.68,-94.7,NA,NA,NA,14.4,98,NA,NA,"210Pb","Hobbs et al. 2013 ","K2013_1"
"346","George B.E.",66,"Lake","USA","N. America",44.98,-92.88,NA,NA,NA,18.2,48,NA,NA,"210Pb","Hobbs et al. 2013 ","K2013_1"
"347","George Kandi",66,"Lake","USA","N. America",45.23,-94.98,NA,NA,NA,18.8,28,NA,NA,"210Pb","Hobbs et al. 2013 ","K2013_1"
"348","Henderson",73,"Lake","USA","N. America",45.23,-94.99,NA,NA,NA,30,27,NA,NA,"210Pb","Hobbs et al. 2013 ","K2013_1"
"349","Hjermsted A",75,"Lake","USA","N. America",44.17,-95.97,NA,NA,NA,13.8,106,NA,NA,"210Pb","Hobbs et al. 2013 ","K2013_1"
"350","Kabetogama",87,"Lake","USA","N. America",48.46,-92.95,NA,NA,NA,24.7,29,NA,NA,"210Pb","Hobbs et al. 2013 ","K2013_1"
"351","Kreighle",88,"Lake","USA","N. America",45.58,-94.48,NA,NA,NA,47.1,36,NA,NA,"210Pb","Hobbs et al. 2013 ","K2013_1"
"352","Lac La Croix",90,"Lake","Canada","N. America",48.36,-92.18,NA,NA,NA,20.6,13,NA,NA,"210Pb","Hobbs et al. 2013 ","K2013_1"
"353","Lady Slipper",91,"Lake","USA","N. America",44.57,-95.63,NA,NA,NA,14.5,55,NA,NA,"210Pb","Hobbs et al. 2013 ","K2013_1"
"354","Little Lower Elk",102,"Lake","USA","N. America",45.93,-95.81,NA,NA,NA,21.4,47,NA,NA,"210Pb","Hobbs et al. 2013 ","K2013_1"
"355","Little Trout",104,"Lake","USA","N. America",48.4,-92.52,NA,NA,NA,24.2,9,NA,NA,"210Pb","Hobbs et al. 2013 ","K2013_1"
"356","Little Turtle",105,"Lake","USA","N. America",45.88,-95.85,NA,NA,NA,28.4,51,NA,NA,"210Pb","Hobbs et al. 2013 ","K2013_1"
"357","Locator",107,"Lake","USA","N. America",48.54,-93.01,NA,NA,NA,44.9,9,NA,NA,"210Pb","Hobbs et al. 2013 ","K2013_1"
"358","Lone Tree",109,"Lake","USA","N. America",44.69,-95.45,NA,NA,NA,16.7,85,NA,NA,"210Pb","Hobbs et al. 2013 ","K2013_1"
"359","Long",110,"Lake","USA","N. America",45.33,-94.87,NA,NA,NA,20.6,21,NA,NA,"210Pb","Hobbs et al. 2013 ","K2013_1"
"360","Namakan",127,"Lake","USA","N. America",48.43,-92.7,NA,NA,NA,15.3,15,NA,NA,"210Pb","Hobbs et al. 2013 ","K2013_1"
"361","Nelson",129,"Lake","USA","N. America",45.52,-95.44,NA,NA,NA,19.4,61,NA,NA,"210Pb","Hobbs et al. 2013 ","K2013_1"
"362","Nipisiquit",131,"Lake","USA","N. America",47.36,-91.25,NA,NA,NA,38.1,21,NA,NA,"210Pb","Hobbs et al. 2013 ","K2013_1"
"363","Oak",133,"Lake","USA","N. America",44.54,-96.24,NA,NA,NA,16.1,59,NA,NA,"210Pb","Hobbs et al. 2013 ","K2013_1"
"364","Ohsrund",134,"Lake","USA","N. America",45.8,-96.05,NA,NA,NA,18.3,63,NA,NA,"210Pb","Hobbs et al. 2013 ","K2013_1"
"365","Peary",138,"Lake","USA","N. America",48.52,-92.77,NA,NA,NA,28.3,29,NA,NA,"210Pb","Hobbs et al. 2013 ","K2013_1"
"366","Rainy",145,"Lake","USA","N. America",48.54,-92.83,NA,NA,NA,13.3,14,NA,NA,"210Pb","Hobbs et al. 2013 ","K2013_1"
"367","Richardson",148,"Lake","USA","N. America",45.16,-94.44,NA,NA,NA,12.6,81,NA,NA,"210Pb","Hobbs et al. 2013 ","K2013_1"
"368","Round",149,"Lake","USA","N. America",47.21,-93.36,NA,NA,NA,20.2,102,NA,NA,"210Pb","Hobbs et al. 2013 ","K2013_1"
"369","Round-Pope",149,"Lake","USA","N. America",45.56,-95.27,NA,NA,NA,16,70,NA,NA,"210Pb","Hobbs et al. 2013 ","K2013_1"
"370","Ryan",151,"Lake","USA","N. America",48.52,-92.71,NA,NA,NA,43.6,29,NA,NA,"210Pb","Hobbs et al. 2013 ","K2013_1"
"371","Solem",163,"Lake","USA","N. America",45.81,-95.64,NA,NA,NA,26.7,41,NA,NA,"210Pb","Hobbs et al. 2013 ","K2013_1"
"372","Speckled Trout",164,"Lake","USA","N. America",47.95,-89.85,NA,NA,NA,51.7,22,NA,NA,"210Pb","Hobbs et al. 2013 ","K2013_1"
"373","Stahls",176,"Lake","USA","N. America",44.95,-94.42,NA,NA,NA,26.3,71,NA,NA,"210Pb","Hobbs et al. 2013 ","K2013_1"
"374","Moskey Basin, Lake Superior",178,"Lake","USA","N. America",48.07,-88.57,NA,NA,NA,13.8,19,NA,NA,"210Pb","Hobbs et al. 2013 ","K2013_1"
"375","Swamp",180,"Lake","USA","N. America",47.95,-89.86,NA,NA,NA,52.7,38,NA,NA,"210Pb","Hobbs et al. 2013 ","K2013_1"
"376","Tettegouche",183,"Lake","USA","N. America",47.34,-91.27,NA,NA,NA,44.8,19,NA,NA,"210Pb","Hobbs et al. 2013 ","K2013_1"
"377","Tooth",186,"Lake","USA","N. America",48.4,-92.64,NA,NA,NA,49.2,12,NA,NA,"210Pb","Hobbs et al. 2013 ","K2013_1"
"378","Turtle A",189,"Lake","USA","N. America",45.89,-95.84,NA,NA,NA,12.8,68,NA,NA,"210Pb","Hobbs et al. 2013 ","K2013_1"
"379","Turtle B",189,"Lake","USA","N. America",45.88,-95.84,NA,NA,NA,14.3,65,NA,NA,"210Pb","Hobbs et al. 2013 ","K2013_1"
"380","Wolf",210,"Lake","USA","N. America",43.86,-95.09,NA,NA,NA,15.3,132,NA,NA,"210Pb","Hobbs et al. 2013 ","K2013_1"
"381","Ahmik",557,"Lake","USA","N. America",48.15,-88.54,NA,NA,NA,43.3,44,NA,NA,"210Pb","Hobbs et al. 2013 ","K2013_1"
"382","Bellevue",559,"Lake","USA","N. America",45.1,-95.02,NA,NA,NA,19.9,43,NA,NA,"210Pb","Hobbs et al. 2013 ","K2013_1"
"383","Blakesley",560,"Lake","USA","N. America",45.14,-95.04,NA,NA,NA,38.8,110,NA,NA,"210Pb","Hobbs et al. 2013 ","K2013_1"
"384","Buffalo",561,"Lake","USA","N. America",44.08,-95.58,NA,NA,NA,15.2,108,NA,NA,"210Pb","Hobbs et al. 2013 ","K2013_1"
"385","Christina E",563,"Lake","USA","N. America",46.08,-95.69,NA,NA,NA,27,46,NA,NA,"210Pb","Hobbs et al. 2013 ","K2013_1"
"386","Christina W",563,"Lake","USA","N. America",46.1,-95.74,NA,NA,NA,21.2,54,NA,NA,"210Pb","Hobbs et al. 2013 ","K2013_1"
"387","Dunnigan",566,"Lake","USA","N. America",47.71,-91.63,NA,NA,NA,58.3,24,NA,NA,"210Pb","Hobbs et al. 2013 ","K2013_1"
"388","E.Bah",567,"Lake","USA","N. America",46,-95.76,NA,NA,NA,20.8,59,NA,NA,"210Pb","Hobbs et al. 2013 ","K2013_1"
"389","Emily",570,"Lake","USA","N. America",44.96,-94.33,NA,NA,NA,31.3,114,NA,NA,"210Pb","Hobbs et al. 2013 ","K2013_1"
"390","Emily Peter",571,"Lake","USA","N. America",44.31,-93.92,NA,NA,NA,21.5,85,NA,NA,"210Pb","Hobbs et al. 2013 ","K2013_1"
"391","Florence",572,"Lake","USA","N. America",45.01,-86.12,NA,NA,NA,56.5,21,NA,NA,"210Pb","Hobbs et al. 2013 ","K2013_1"
"392","Frolund",573,"Lake","USA","N. America",45.08,-95.53,NA,NA,NA,27.9,63,NA,NA,"210Pb","Hobbs et al. 2013 ","K2013_1"
"393","Gil-Bret",574,"Lake","USA","N. America",45.43,-95.36,NA,NA,NA,21.4,49,NA,NA,"210Pb","Hobbs et al. 2013 ",""
"394","Grand Sable",576,"Lake","USA","N. America",46.64,-86.04,NA,NA,NA,11.6,12,NA,NA,"210Pb","Hobbs et al. 2013 ",""
"395","Grandokken",577,"Lake","USA","N. America",46.03,-95.14,NA,NA,NA,40.4,59,NA,NA,"210Pb","Hobbs et al. 2013 ",""
"396","Greenleaf",579,"Lake","USA","N. America",44.4,-93.63,NA,NA,NA,19.7,110,NA,NA,"210Pb","Hobbs et al. 2013 ",""
"397","Harvey",580,"Lake","USA","N. America",48.05,-88.8,NA,NA,NA,39.7,79,NA,NA,"210Pb","Hobbs et al. 2013 ","H2013_1"
"398","Hook",583,"Lake","USA","N. America",44.95,-94.34,NA,NA,NA,26.7,133,NA,NA,"210Pb","Hobbs et al. 2013 ","H2013_1"
"399","Intermediate",584,"Lake","USA","N. America",48.03,-88.73,NA,NA,NA,26.8,32,NA,NA,"210Pb","Hobbs et al. 2013 ","H2013_1"
"400","Island",585,"Lake","USA","N. America",44.38,-96.01,NA,NA,NA,19.9,62,NA,NA,"210Pb","Hobbs et al. 2013 ","H2013_1"
"401","Kjostad",586,"Lake","USA","N. America",48.11,-92.61,NA,NA,NA,41.6,14,NA,NA,"210Pb","Hobbs et al. 2013 ","H2013_1"
"402","Leverson",589,"Lake","USA","N. America",45.02,-95.06,NA,NA,NA,17.2,120,NA,NA,"210Pb","Hobbs et al. 2013 ","H2013_1"
"403","Luce",593,"Lake","USA","N. America",44.96,-93.78,NA,NA,NA,21,55,NA,NA,"210Pb","Hobbs et al. 2013 ","H2013_1"
"404","Lura",594,"Lake","USA","N. America",43.88,-94.02,NA,NA,NA,16,65,NA,NA,"210Pb","Hobbs et al. 2013 ","H2013_1"
"405","Malachy",595,"Lake","USA","N. America",45.37,-95.68,NA,NA,NA,16.4,62,NA,NA,"210Pb","Hobbs et al. 2013 ","H2013_1"
"406","Manitou",596,"Lake","USA","N. America",45.13,-86.02,NA,NA,NA,34.5,30,NA,NA,"210Pb","Hobbs et al. 2013 ","H2013_1"
"407","Mavis East",597,"Lake","USA","N. America",46.1,-96.04,NA,NA,NA,28.5,63,NA,NA,"210Pb","Hobbs et al. 2013 ","H2013_1"
"408","Mavis West",597,"Lake","USA","N. America",46.26,-96.05,NA,NA,NA,19.2,68,NA,NA,"210Pb","Hobbs et al. 2013 ","H2013_1"
"409","Morrison",599,"Lake","USA","N. America",46.13,-95.89,NA,NA,NA,25.7,93,NA,NA,"210Pb","Hobbs et al. 2013 ","H2013_1"
"410","Mukooda",600,"Lake","USA","N. America",48.33,-92.49,NA,NA,NA,32.4,11,NA,NA,"210Pb","Hobbs et al. 2013 ","H2013_1"
"411","Murk",601,"Lake","USA","N. America",45.12,-95.07,NA,NA,NA,22.2,68,NA,NA,"210Pb","Hobbs et al. 2013 ","H2013_1"
"412","Org",604,"Lake","USA","N. America",45.06,-95.09,NA,NA,NA,24.4,67,NA,NA,"210Pb","Hobbs et al. 2013 ","H2013_1"
"413","Outer",605,"Lake","USA","N. America",47,-90.46,NA,NA,NA,49.4,24,NA,NA,"210Pb","Hobbs et al. 2013 ","H2013_1"
"414","Pisa",608,"Lake","USA","N. America",45.05,-95.06,NA,NA,NA,28.5,83,NA,NA,"210Pb","Hobbs et al. 2013 ","H2013_1"
"415","Richie",611,"Lake","USA","N. America",48.04,-88.7,NA,NA,NA,24.1,19,NA,NA,"210Pb","Hobbs et al. 2013 ","H2013_1"
"416","Shell",612,"Lake","USA","N. America",44.95,-85.9,NA,NA,NA,47.2,30,NA,NA,"210Pb","Hobbs et al. 2013 ","H2013_1"
"417","Siskiwit",614,"Lake","USA","N. America",48,-88.8,NA,NA,NA,23.4,13,NA,NA,"210Pb","Hobbs et al. 2013 ","H2013_1"
"418","Skunk",615,"Lake","USA","N. America",45.16,-95.05,NA,NA,NA,39.4,71,NA,NA,"210Pb","Hobbs et al. 2013 ","H2013_1"
"419","Slotseye",616,"Lake","USA","N. America",46.06,-95.84,NA,NA,NA,19.4,50,NA,NA,"210Pb","Hobbs et al. 2013 ","H2013_1"
"420","Smith",617,"Lake","USA","N. America",45.08,-94.13,NA,NA,NA,37.8,132,NA,NA,"210Pb","Hobbs et al. 2013 ","H2013_1"
"421","Steep Bank",620,"Lake","USA","N. America",44.54,-96.33,NA,NA,NA,12.7,81,NA,NA,"210Pb","Hobbs et al. 2013 ","H2013_1"
"422","Wallance",624,"Lake","USA","N. America",48.06,-88.63,NA,NA,NA,39.9,47,NA,NA,"210Pb","Hobbs et al. 2013 ","H2013_1"
"423","Whittlesley",625,"Lake","USA","N. America",48.01,-88.71,NA,NA,NA,27.8,26,NA,NA,"210Pb","Hobbs et al. 2013 ","H2013_1"
"424","Beaver 2",728,"Lake","USA","N. America",46.57,-86.34,NA,NA,NA,45.6,23,NA,NA,"210Pb","Hobbs et al. 2013 ","H2013_1"
"425","Green Bay-12",70,"Lake","USA","N. America",44.51,-88.01,NA,NA,NA,NA,17.3,54.53,31.72,"210Pb and 137Cs","Klump et al. 2020","H2013_1"
"426","Green Bay-17",70,"Lake","USA","N. America",44.51,-88.01,NA,NA,NA,NA,20.66,35.91,57.53,"210Pb and 137Cs","Klump et al. 2020","H2013_1"
"427","Green Bay-21",70,"Lake","USA","N. America",44.51,-88.01,NA,NA,NA,NA,28.59,40.6,70.41,"210Pb and 137Cs","Klump et al. 2020","S2006_1"
"428","Green Bay-25",70,"Lake","USA","N. America",44.51,-88.01,NA,NA,NA,NA,20.78,40.12,51.8,"210Pb and 137Cs","Klump et al. 2020",""
"429","Green Bay-25-31",70,"Lake","USA","N. America",44.51,-88.01,NA,NA,NA,NA,39.4,60.77,64.82,"210Pb and 137Cs","Klump et al. 2020",""
"430","Green Bay-26",70,"Lake","USA","N. America",44.51,-88.01,NA,NA,NA,NA,35.19,54.05,65.11,"210Pb and 137Cs","Klump et al. 2020",""
"431","Green Bay-30",70,"Lake","USA","N. America",44.51,-88.01,NA,NA,NA,NA,44.2,65.94,67.03,"210Pb and 137Cs","Klump et al. 2020",""
"432","Green Bay-30-31",70,"Lake","USA","N. America",44.51,-88.01,NA,NA,NA,NA,41.32,58.37,70.78,"210Pb and 137Cs","Klump et al. 2020",""
"433","Green Bay-31",70,"Lake","USA","N. America",44.51,-88.01,NA,NA,NA,NA,50.32,67.14,74.96,"210Pb and 137Cs","Klump et al. 2020",""
"434","Green Bay-31-38",70,"Lake","USA","N. America",44.51,-88.01,NA,NA,NA,NA,36.03,51.65,69.77,"210Pb and 137Cs","Klump et al. 2020",""
"435","Green Bay-31-39",70,"Lake","USA","N. America",44.51,-88.01,NA,NA,NA,NA,41.56,70.26,59.15,"210Pb and 137Cs","Klump et al. 2020",""
"436","Green Bay-32",70,"Lake","USA","N. America",44.51,-88.01,NA,NA,NA,NA,80.11,135.96,58.92,"210Pb and 137Cs","Klump et al. 2020",""
"437","Green Bay-33",70,"Lake","USA","N. America",44.51,-88.01,NA,NA,NA,NA,35.79,84.2,42.51,"210Pb and 137Cs","Klump et al. 2020",""
"438","Green Bay-38",70,"Lake","USA","N. America",44.51,-88.01,NA,NA,NA,NA,27.98,41.68,67.15,"210Pb and 137Cs","Klump et al. 2020",""
"439","Green Bay-39",70,"Lake","USA","N. America",44.51,-88.01,NA,NA,NA,NA,36.03,59.69,60.36,"210Pb and 137Cs","Klump et al. 2020",""
"440","Green Bay-43",70,"Lake","USA","N. America",44.51,-88.01,NA,NA,NA,NA,21.5,32.31,66.54,"210Pb and 137Cs","Klump et al. 2020",""
"441","Green Bay-47",70,"Lake","USA","N. America",44.51,-88.01,NA,NA,NA,NA,21.02,35.43,59.32,"210Pb and 137Cs","Klump et al. 2020",""
"442","Green Bay-48",70,"Lake","USA","N. America",44.51,-88.01,NA,NA,NA,NA,13.21,22.34,59.14,"210Pb and 137Cs","Klump et al. 2020",""
"443","Green Bay-9",70,"Lake","USA","N. America",44.51,-88.01,NA,NA,NA,NA,11.05,48.64,22.72,"210Pb and 137Cs","Klump et al. 2020",""
"444","Mich Lake-2076",121,"Lake","USA","N. America",43.45,-87.22,NA,NA,NA,NA,3.48,8.41,41.43,"210Pb and 137Cs","Klump et al. 2020",""
"445","Mich Lake-2077",121,"Lake","USA","N. America",43.45,-87.22,NA,NA,NA,NA,3.72,7.81,47.69,"210Pb and 137Cs","Klump et al. 2020",""
"446","Mich Lake-2080",121,"Lake","USA","N. America",43.45,-87.22,NA,NA,NA,NA,51.29,64.5,79.52,"210Pb and 137Cs","Klump et al. 2020",""
"447","Mich Lake-2082",121,"Lake","USA","N. America",43.45,-87.22,NA,NA,NA,NA,24.14,29.55,81.71,"210Pb and 137Cs","Klump et al. 2020",""
"448","Mich Lake-2085",121,"Lake","USA","N. America",43.45,-87.22,NA,NA,NA,NA,5.04,15.37,32.81,"210Pb and 137Cs","Klump et al. 2020",""
"449","Mich Lake-2086",121,"Lake","USA","N. America",43.45,-87.22,NA,NA,NA,NA,6.37,10.45,60.92,"210Pb and 137Cs","Klump et al. 2020",""
"450","Superior-1377",178,"Lake","USA/Canada","N. America",47,86.06,NA,NA,NA,NA,18.98,24.38,77.83,"210Pb and 137Cs","Klump et al. 2020",""
"451","Superior-EB",178,"Lake","USA/Canada","N. America",47.21,86.08,NA,NA,NA,NA,12.97,15.25,85.04,"210Pb and 137Cs","Klump et al. 2020",""
"452","Superior-HB",178,"Lake","USA/Canada","N. America",46.92,84.47,NA,NA,NA,NA,7.69,13.09,58.72,"210Pb and 137Cs","Klump et al. 2020",""
"453","Superior-IP",178,"Lake","USA/Canada","N. America",46.68,84.78,NA,NA,NA,NA,13.45,19.82,67.88,"210Pb and 137Cs","Klump et al. 2020",""
"454","Baikal-101",231,"Lake","Russia","Asia",51.78,104.47,NA,NA,NA,NA,1.93,5.01,38.61,"210Pb and 137Cs","Klump et al. 2020",""
"455","Baikal-102",231,"Lake","Russia","Asia",51.73,105.23,NA,NA,NA,NA,0.81,2.57,31.36,"210Pb and 137Cs","Klump et al. 2020",""
"456","Baikal-103",231,"Lake","Russia","Asia",52.38,106.15,NA,NA,NA,NA,3.89,6.11,63.65,"210Pb and 137Cs","Klump et al. 2020",""
"457","Baikal-104",231,"Lake","Russia","Asia",52.37,106.22,NA,NA,NA,NA,4.86,7.05,68.99,"210Pb and 137Cs","Klump et al. 2020",""
"458","Baikal-105",231,"Lake","Russia","Asia",52.42,105.98,NA,NA,NA,NA,2.52,4.59,54.97,"210Pb and 137Cs","Klump et al. 2020",""
"459","Baikal-106",231,"Lake","Russia","Asia",53.18,107.77,NA,NA,NA,NA,1.9,2.7,70.22,"210Pb and 137Cs","Klump et al. 2020",""
"460","Baikal-107",231,"Lake","Russia","Asia",53.53,107.97,NA,NA,NA,NA,0.07,0.55,13.04,"210Pb and 137Cs","Klump et al. 2020",""
"461","Baikal-108",231,"Lake","Russia","Asia",53.92,108.42,NA,NA,NA,NA,0.24,1.06,22.73,"210Pb and 137Cs","Klump et al. 2020",""
"462","Baikal-109",231,"Lake","Russia","Asia",52.92,107.88,NA,NA,NA,NA,0.53,1.6,33.08,"210Pb and 137Cs","Klump et al. 2020",""
"463","Baikal-110",231,"Lake","Russia","Asia",52.98,107.85,NA,NA,NA,NA,0.92,1.74,53.1,"210Pb and 137Cs","Klump et al. 2020",""
"464","Acton",1,"Reservoir","USA","N. America",39.56,84.74,20.9,0.65,NA,2.14,290.72,NA,NA,"Bathymetric surveys","Knoll et al. 2014",""
"465","Burr Oak",23,"Reservoir","USA","N. America",39.54,82.06,7,0.42,NA,1.71,50.27,NA,NA,"Bathymetric surveys","Knoll et al. 2014",""
"466","Four Mile Pond #10",61,"Reservoir","USA","N. America",39.61,84.74,20.5,0.54,NA,1.89,209.22,NA,NA,"Bathymetric surveys","Knoll et al. 2014",""
"467","Four Mile Pond #14",62,"Reservoir","USA","N. America",39.61,84.76,26.4,0.59,NA,1.87,291.27,NA,NA,"Bathymetric surveys","Knoll et al. 2014",""
"468","Four Mile Pond #9",63,"Reservoir","USA","N. America",39.61,84.73,24.3,0.52,NA,1.89,238.82,NA,NA,"Bathymetric surveys","Knoll et al. 2014",""
"469","Miami Whitewater",120,"Reservoir","USA","N. America",39.26,84.74,16.2,0.52,NA,1.91,160.9,NA,NA,"Bathymetric surveys","Knoll et al. 2014",""
"470","Pleasant Hill",141,"Reservoir","USA","N. America",40.62,82.32,10.2,0.42,NA,2.43,104.1,NA,NA,"Bathymetric surveys","Knoll et al. 2014",""
"471","Preble",144,"Reservoir","USA","N. America",39.77,84.68,4.1,0.41,NA,2.78,46.73,NA,NA,"Bathymetric surveys","Knoll et al. 2014",""
"472","Rush Run",150,"Reservoir","USA","N. America",39.6,84.61,5.2,0.33,NA,3.13,53.71,NA,NA,"Bathymetric surveys","Knoll et al. 2014",""
"473","Sharon Woods",156,"Reservoir","USA","N. America",39.28,84.39,40.7,0.52,NA,2.66,562.96,NA,NA,"Bathymetric surveys","Knoll et al. 2014",""
"474","Strimple",177,"Reservoir","USA","N. America",39.25,84.73,69.1,0.53,NA,2.19,802.04,NA,NA,"Bathymetric surveys","Knoll et al. 2014",""
"475","Supply ERC",179,"Reservoir","USA","N. America",39.53,84.72,4.6,0.31,NA,3.5,49.91,NA,NA,"Bathymetric surveys","Knoll et al. 2014",""
"476","Winton Woods",209,"Reservoir","USA","N. America",39.26,84.52,29.1,0.5,NA,2.37,344.84,NA,NA,"Bathymetric surveys","Knoll et al. 2014",""
"477","Alainen Mustalampi",249,"Lake","Finland","Europe",62.59,23.95,NA,NA,NA,NA,7.7,NA,NA,"Thickness+age estimation","Kortelainen et al. 2013",""
"478","Ätäskö 94 Lietsonselkä",252,"Lake","Finland","Europe",62.04,29.99,NA,NA,NA,NA,3,NA,NA,"Thickness+age estimation","Kortelainen et al. 2013",""
"479","Haukijärvi 45",256,"Lake","Finland","Europe",63.04,27.08,NA,NA,NA,NA,3.7,NA,NA,"Thickness+age estimation","Kortelainen et al. 2013",""
"480","Haukilampi 365",257,"Lake","Finland","Europe",61.58,27.14,NA,NA,NA,NA,2,NA,NA,"Thickness+age estimation","Kortelainen et al. 2013",""
"481","Havanganjärvi Luusua",258,"Lake","Finland","Europe",62.14,23.64,NA,NA,NA,NA,8.5,NA,NA,"Thickness+age estimation","Kortelainen et al. 2013",""
"482","Hossanjärvi 3",259,"Lake","Finland","Europe",65.44,29.54,NA,NA,NA,NA,1,NA,NA,"Thickness+age estimation","Kortelainen et al. 2013",""
"483","Höytiäinen 1 Va 6 Kontio",260,"Lake","Finland","Europe",62.74,29.76,NA,NA,NA,NA,0.7,NA,NA,"Thickness+age estimation","Kortelainen et al. 2013",""
"484","Ihalanjärvi 005",261,"Lake","Finland","Europe",61.5,28.88,NA,NA,NA,NA,1.7,NA,NA,"Thickness+age estimation","Kortelainen et al. 2013",""
"485","Inarijärvi",262,"Lake","Finland","Europe",69.15,28.33,NA,NA,NA,NA,0.4,NA,NA,"Thickness+age estimation","Kortelainen et al. 2013",""
"486","Iso-Haukivesi 37",263,"Lake","Finland","Europe",62.02,28.64,NA,NA,NA,NA,0.9,NA,NA,"Thickness+age estimation","Kortelainen et al. 2013",""
"487","Iso-Lyly 011",264,"Lake","Finland","Europe",62.99,28.53,NA,NA,NA,NA,4.9,NA,NA,"Thickness+age estimation","Kortelainen et al. 2013",""
"488","Johdasjärvi 009",265,"Lake","Finland","Europe",61.1,26.58,NA,NA,NA,NA,1.9,NA,NA,"Thickness+age estimation","Kortelainen et al. 2013",""
"489","Joukkaisjä 068005 140452",266,"Lake","Finland","Europe",69.09,27.33,NA,NA,NA,NA,2.2,NA,NA,"Thickness+age estimation","Kortelainen et al. 2013",""
"490","Juojärvi 27",267,"Lake","Finland","Europe",62.73,28.62,NA,NA,NA,NA,0.6,NA,NA,"Thickness+age estimation","Kortelainen et al. 2013",""
"491","Juurusvesi 24",268,"Lake","Finland","Europe",63.02,27.83,NA,NA,NA,NA,1.3,NA,NA,"Thickness+age estimation","Kortelainen et al. 2013",""
"492","Kalisjön",269,"Lake","Finland","Europe",63.39,23.14,NA,NA,NA,NA,6.5,NA,NA,"Thickness+age estimation","Kortelainen et al. 2013",""
"493","Kallavesi 25",270,"Lake","Finland","Europe",62.83,27.87,NA,NA,NA,NA,0.5,NA,NA,"Thickness+age estimation","Kortelainen et al. 2013",""
"494","Karijärvi 015",271,"Lake","Finland","Europe",61.15,26.42,NA,NA,NA,NA,1,NA,NA,"Thickness+age estimation","Kortelainen et al. 2013",""
"495","Kätkänjärvi Keskiosa Ii",272,"Lake","Finland","Europe",62.86,23.83,NA,NA,NA,NA,2.1,NA,NA,"Thickness+age estimation","Kortelainen et al. 2013",""
"496","Keitele 55",273,"Lake","Finland","Europe",62.68,25.87,NA,NA,NA,NA,0.6,NA,NA,"Thickness+age estimation","Kortelainen et al. 2013",""
"497","Kemijärvi 147",274,"Lake","Finland","Europe",66.56,27.35,NA,NA,NA,NA,1.7,NA,NA,"Thickness+age estimation","Kortelainen et al. 2013",""
"498","Keskijärvi",275,"Lake","Finland","Europe",61.84,25.79,NA,NA,NA,NA,4.7,NA,NA,"Thickness+age estimation","Kortelainen et al. 2013",""
"499","Keurusselkä 113",276,"Lake","Finland","Europe",62.18,24.67,NA,NA,NA,NA,1.7,NA,NA,"Thickness+age estimation","Kortelainen et al. 2013",""
"500","Kiantajärvi Syv.136",277,"Lake","Finland","Europe",65.03,29.12,NA,NA,NA,NA,1.4,NA,NA,"Thickness+age estimation","Kortelainen et al. 2013",""
"501","Kinnasjärvi 4",278,"Lake","Finland","Europe",62.5,30.75,NA,NA,NA,NA,2.2,NA,NA,"Thickness+age estimation","Kortelainen et al. 2013",""
"502","Kivijärvi 50",279,"Lake","Finland","Europe",63.07,25.15,NA,NA,NA,NA,1.4,NA,NA,"Thickness+age estimation","Kortelainen et al. 2013",""
"503","Koijärvi Luusua 087",280,"Lake","Finland","Europe",61.89,29.19,NA,NA,NA,NA,5.1,NA,NA,"Thickness+age estimation","Kortelainen et al. 2013",""
"504","Koitere 1 Va 5 Juuans",281,"Lake","Finland","Europe",62.95,30.63,NA,NA,NA,NA,1.5,NA,NA,"Thickness+age estimation","Kortelainen et al. 2013",""
"505","Kolimajärvi 52",282,"Lake","Finland","Europe",63.28,25.74,NA,NA,NA,NA,0.8,NA,NA,"Thickness+age estimation","Kortelainen et al. 2013",""
"506","Konnevesi 64",283,"Lake","Finland","Europe",62.61,26.49,NA,NA,NA,NA,0.5,NA,NA,"Thickness+age estimation","Kortelainen et al. 2013",""
"507","Kostonjärvi Luusua",284,"Lake","Finland","Europe",65.78,28.43,NA,NA,NA,NA,1.4,NA,NA,"Thickness+age estimation","Kortelainen et al. 2013",""
"508","Kukkia 100",285,"Lake","Finland","Europe",61.33,24.67,NA,NA,NA,NA,0.3,NA,NA,"Thickness+age estimation","Kortelainen et al. 2013",""
"509","Kuonanjärvi Luusua 030",286,"Lake","Finland","Europe",61.99,29.21,NA,NA,NA,NA,5.9,NA,NA,"Thickness+age estimation","Kortelainen et al. 2013",""
"510","Kylmäjärvi 041",287,"Lake","Finland","Europe",64.64,29.55,NA,NA,NA,NA,1.8,NA,NA,"Thickness+age estimation","Kortelainen et al. 2013",""
"511","Kypärijärvi, Keskiosa 1",288,"Lake","Finland","Europe",60.29,24.35,NA,NA,NA,NA,4.1,NA,NA,"Thickness+age estimation","Kortelainen et al. 2013",""
"512","Kyyvesi 85",289,"Lake","Finland","Europe",61.97,27.14,NA,NA,NA,NA,2.5,NA,NA,"Thickness+age estimation","Kortelainen et al. 2013",""
"513","Längelmäv 102 Ponsanse",290,"Lake","Finland","Europe",61.54,24.34,NA,NA,NA,NA,0.4,NA,NA,"Thickness+age estimation","Kortelainen et al. 2013",""
"514","Loukkojärvi Luusua",291,"Lake","Finland","Europe",65.19,25.92,NA,NA,NA,NA,4,NA,NA,"Thickness+age estimation","Kortelainen et al. 2013",""
"515","Luonteri 43",292,"Lake","Finland","Europe",61.63,27.79,NA,NA,NA,NA,0.8,NA,NA,"Thickness+age estimation","Kortelainen et al. 2013",""
"516","Mallasv 105",293,"Lake","Finland","Europe",61.29,24.15,NA,NA,NA,NA,0.5,NA,NA,"Thickness+age estimation","Kortelainen et al. 2013",""
"517","Muntsurinjärvi 5",294,"Lake","Finland","Europe",63.53,29.98,NA,NA,NA,NA,1.8,NA,NA,"Thickness+age estimation","Kortelainen et al. 2013",""
"518","Muuratjärvi 1/7",295,"Lake","Finland","Europe",62.13,25.56,NA,NA,NA,NA,0.7,NA,NA,"Thickness+age estimation","Kortelainen et al. 2013",""
"519","Näsijä 117 Koljonselkä",296,"Lake","Finland","Europe",61.67,23.71,NA,NA,NA,NA,0.4,NA,NA,"Thickness+age estimation","Kortelainen et al. 2013",""
"520","Nilakka 59",297,"Lake","Finland","Europe",63.14,26.45,NA,NA,NA,NA,0.8,NA,NA,"Thickness+age estimation","Kortelainen et al. 2013",""
"521","Nurmijärvi 019",298,"Lake","Finland","Europe",61.39,29.17,NA,NA,NA,NA,1.2,NA,NA,"Thickness+age estimation","Kortelainen et al. 2013",""
"522","Onkivesi 18",299,"Lake","Finland","Europe",63.33,27.37,NA,NA,NA,NA,0.9,NA,NA,"Thickness+age estimation","Kortelainen et al. 2013",""
"523","Orivesi 2 Va 14 Samppaan",300,"Lake","Finland","Europe",62.23,29.46,NA,NA,NA,NA,1.5,NA,NA,"Thickness+age estimation","Kortelainen et al. 2013",""
"524","Päijänne, Vihtastens. 31",301,"Lake","Finland","Europe",61.47,25.39,NA,NA,NA,NA,0.2,NA,NA,"Thickness+age estimation","Kortelainen et al. 2013",""
"525","Paukajärvi",302,"Lake","Finland","Europe",62.34,23.48,NA,NA,NA,NA,2.3,NA,NA,"Thickness+age estimation","Kortelainen et al. 2013",""
"526","Pieksänj Haapaj Suu 007",303,"Lake","Finland","Europe",62.32,27.14,NA,NA,NA,NA,3.1,NA,NA,"Thickness+age estimation","Kortelainen et al. 2013",""
"527","Pielavesi 58",304,"Lake","Finland","Europe",63.32,26.5,NA,NA,NA,NA,1.1,NA,NA,"Thickness+age estimation","Kortelainen et al. 2013",""
"528","Pielinen 7 Va 302 Kalkut",305,"Lake","Finland","Europe",63.29,29.58,NA,NA,NA,NA,0.6,NA,NA,"Thickness+age estimation","Kortelainen et al. 2013",""
"529","Pieni-Montonen 137",306,"Lake","Finland","Europe",61.74,26.95,NA,NA,NA,NA,4.7,NA,NA,"Thickness+age estimation","Kortelainen et al. 2013",""
"530","Piilampi 033",307,"Lake","Finland","Europe",61.55,29.24,NA,NA,NA,NA,3.5,NA,NA,"Thickness+age estimation","Kortelainen et al. 2013",""
"531","Pintamojärvi Luusua",308,"Lake","Finland","Europe",65.47,27.66,NA,NA,NA,NA,3,NA,NA,"Thickness+age estimation","Kortelainen et al. 2013",""
"532","Puruvesi 39",309,"Lake","Finland","Europe",61.89,29.52,NA,NA,NA,NA,0.9,NA,NA,"Thickness+age estimation","Kortelainen et al. 2013",""
"533","Puulavesi 85",310,"Lake","Finland","Europe",61.8,26.58,NA,NA,NA,NA,1.4,NA,NA,"Thickness+age estimation","Kortelainen et al. 2013",""
"534","Pyhäjärvi Kitee",311,"Lake","Finland","Europe",62.03,29.92,NA,NA,NA,NA,2,NA,NA,"Thickness+age estimation","Kortelainen et al. 2013",""
"535","Pyhäjärvi Pirkkala",312,"Lake","Finland","Europe",61.44,23.53,NA,NA,NA,NA,0.4,NA,NA,"Thickness+age estimation","Kortelainen et al. 2013",""
"536","Pyhäjärvi Pyhäjärvi",313,"Lake","Finland","Europe",63.54,25.98,NA,NA,NA,NA,1.1,NA,NA,"Thickness+age estimation","Kortelainen et al. 2013",""
"537","Pyhäselkä 5 Va 7 Kokonl",314,"Lake","Finland","Europe",62.47,29.8,NA,NA,NA,NA,1,NA,NA,"Thickness+age estimation","Kortelainen et al. 2013",""
"538","Räimäjärvi 104",315,"Lake","Finland","Europe",63.03,27.61,NA,NA,NA,NA,1.3,NA,NA,"Thickness+age estimation","Kortelainen et al. 2013",""
"539","Ristijärvi 62",316,"Lake","Finland","Europe",63.61,28.96,NA,NA,NA,NA,3.6,NA,NA,"Thickness+age estimation","Kortelainen et al. 2013",""
"540","Rytijärvi 130652",317,"Lake","Finland","Europe",66.56,26.47,NA,NA,NA,NA,1.6,NA,NA,"Thickness+age estimation","Kortelainen et al. 2013",""
"541","Saarijärvi Saarenkylä",318,"Lake","Finland","Europe",62.78,25.28,NA,NA,NA,NA,2.9,NA,NA,"Thickness+age estimation","Kortelainen et al. 2013",""
"542","Saimaa Ilkonselkä 021:46",319,"Lake","Finland","Europe",61.26,28.18,NA,NA,NA,NA,1,NA,NA,"Thickness+age estimation","Kortelainen et al. 2013",""
"543","Sulkuejärvi",320,"Lake","Finland","Europe",62.21,23.17,NA,NA,NA,NA,2.2,NA,NA,"Thickness+age estimation","Kortelainen et al. 2013",""
"544","Suvasvesi 29",321,"Lake","Finland","Europe",62.67,28.2,NA,NA,NA,NA,0.5,NA,NA,"Thickness+age estimation","Kortelainen et al. 2013",""
"545","Talvijärvi Luusua",322,"Lake","Finland","Europe",66.17,29.14,NA,NA,NA,NA,3.9,NA,NA,"Thickness+age estimation","Kortelainen et al. 2013",""
"546","Tammalammit 19",323,"Lake","Finland","Europe",62.36,30.23,NA,NA,NA,NA,2.5,NA,NA,"Thickness+age estimation","Kortelainen et al. 2013",""
"547","Tuomaslampi 024",324,"Lake","Finland","Europe",61.11,27.29,NA,NA,NA,NA,2.2,NA,NA,"Thickness+age estimation","Kortelainen et al. 2013",""
"548","Tutulampi",325,"Lake","Finland","Europe",65.49,27.84,NA,NA,NA,NA,4.1,NA,NA,"Thickness+age estimation","Kortelainen et al. 2013",""
"549","Tvärasjön",326,"Lake","Finland","Europe",63.5,23.61,NA,NA,NA,NA,8.4,NA,NA,"Thickness+age estimation","Kortelainen et al. 2013",""
"550","Unnukka 31",327,"Lake","Finland","Europe",62.46,27.85,NA,NA,NA,NA,1,NA,NA,"Thickness+age estimation","Kortelainen et al. 2013",""
"551","Uuranjärvi",328,"Lake","Finland","Europe",62.44,24.57,NA,NA,NA,NA,3.9,NA,NA,"Thickness+age estimation","Kortelainen et al. 2013",""
"552","Vahermanjärvi, Kesk. 1",329,"Lake","Finland","Europe",60.56,23.98,NA,NA,NA,NA,1.2,NA,NA,"Thickness+age estimation","Kortelainen et al. 2013",""
"553","Vanajanse 98",330,"Lake","Finland","Europe",61.18,24.23,NA,NA,NA,NA,1.1,NA,NA,"Thickness+age estimation","Kortelainen et al. 2013",""
"554","Vesijärvi,Kajaanselkä 34",331,"Lake","Finland","Europe",61.15,25.45,NA,NA,NA,NA,2.2,NA,NA,"Thickness+age estimation","Kortelainen et al. 2013",""
"555","Ylä-Siikajärvi 042",332,"Lake","Finland","Europe",63.26,28.33,NA,NA,NA,NA,5.9,NA,NA,"Thickness+age estimation","Kortelainen et al. 2013",""
"556","Yli-Kitka Syvänne",333,"Lake","Finland","Europe",66.11,28.65,NA,NA,NA,NA,1,NA,NA,"Thickness+age estimation","Kortelainen et al. 2013",""
"557","Kariba Lake",225,"Lake","Zambia/Zimbabwe","Africa",-16.52,28.76,3,NA,NA,NA,23,61,41,"137Cs","Kunz et al. 2011",""
"558","Huairou reservoir",238,"Reservoir","China","Asia",40.31,116.61,4.36,0.91,NA,1.57,62.3,NA,NA,"Thickness+reservoir age","Luo et al. 2016",""
"559","Shisanling reservoir",245,"Reservoir","China","Asia",40.42,116.45,6,0.97,NA,1.72,100.1,NA,NA,"Thickness+reservoir age","Luo et al. 2016",""
"560","Esthwaite Water",338,"Lake","UK","Europe",54.35,-3,NA,NA,NA,NA,44.3,NA,NA,"Bathymetric surveys","Mackay et al. 2012",""
"561","Calado",214.1,"Lake","Brazil","S. America",-3.31,-60.57,NA,NA,NA,NA,42,NA,NA,"210Pb","Melack & Engle 2009",""
"562","Mascarenhas de Moraes Reservoir 1",220,"Reservoir","Brazil","S. America",-20.28,-47.06,5.6,NA,NA,NA,34.4,71.8,47.9,"Thickness+reservoir age","Mendonça et al. 2016",""
"563","Mascarenhas de Moraes Reservoir 10",220,"Reservoir","Brazil","S. America",-20.28,-47.06,0.7,NA,NA,NA,7.4,42.9,17.3,"Thickness+reservoir age","Mendonça et al. 2016",""
"564","Mascarenhas de Moraes Reservoir 12",220,"Reservoir","Brazil","S. America",-20.28,-47.06,18.1,NA,NA,NA,209.4,255,82.1,"Thickness+reservoir age","Mendonça et al. 2016",""
"565","Mascarenhas de Moraes Reservoir 13",220,"Reservoir","Brazil","S. America",-20.28,-47.06,8.5,NA,NA,NA,69.8,112.8,61.9,"Thickness+reservoir age","Mendonça et al. 2016",""
"566","Mascarenhas de Moraes Reservoir 14",220,"Reservoir","Brazil","S. America",-20.28,-47.06,15.6,NA,NA,NA,141.1,163.2,86.5,"Thickness+reservoir age","Mendonça et al. 2016",""
"567","Mascarenhas de Moraes Reservoir 15",220,"Reservoir","Brazil","S. America",-20.28,-47.06,13.7,NA,NA,NA,140.2,175.5,73.9,"Thickness+reservoir age","Mendonça et al. 2016",""
"568","Mascarenhas de Moraes Reservoir 16",220,"Reservoir","Brazil","S. America",-20.28,-47.06,10,NA,NA,NA,102.5,150.8,68,"Thickness+reservoir age","Mendonça et al. 2016",""
"569","Mascarenhas de Moraes Reservoir 2",220,"Reservoir","Brazil","S. America",-20.28,-47.06,8.1,NA,NA,NA,56,102.2,54.8,"Thickness+reservoir age","Mendonça et al. 2016",""
"570","Mascarenhas de Moraes Reservoir 3",220,"Reservoir","Brazil","S. America",-20.28,-47.06,0.4,NA,NA,NA,3.1,24.1,12.9,"Thickness+reservoir age","Mendonça et al. 2016",""
"571","Mascarenhas de Moraes Reservoir 4",220,"Reservoir","Brazil","S. America",-20.28,-47.06,4.1,NA,NA,NA,37.7,75.3,50,"Thickness+reservoir age","Mendonça et al. 2016",""
"572","Mascarenhas de Moraes Reservoir 5",220,"Reservoir","Brazil","S. America",-20.28,-47.06,4.1,NA,NA,NA,31.9,64.2,49.7,"Thickness+reservoir age","Mendonça et al. 2016",""
"573","Mascarenhas de Moraes Reservoir 6",220,"Reservoir","Brazil","S. America",-20.28,-47.06,7.4,NA,NA,NA,58.2,75,77.7,"Thickness+reservoir age","Mendonça et al. 2016",""
"574","Mascarenhas de Moraes Reservoir 7",220,"Reservoir","Brazil","S. America",-20.28,-47.06,0.4,NA,NA,NA,3.3,35.1,9.3,"Thickness+reservoir age","Mendonça et al. 2016",""
"575","Mascarenhas de Moraes Reservoir 8",220,"Reservoir","Brazil","S. America",-20.28,-47.06,11.5,NA,NA,NA,92.9,115,80.8,"Thickness+reservoir age","Mendonça et al. 2016",""
"576","Mascarenhas de Moraes Reservoir 9",220,"Reservoir","Brazil","S. America",-20.28,-47.06,8.5,NA,NA,NA,60.3,100.5,60,"Thickness+reservoir age","Mendonça et al. 2016",""
"577","Lake Harriet",72,"Lake","USA","N. America",44.93,-93.31,NA,NA,NA,NA,20.3,NA,NA,"210Pb and 137Cs","Mendonça et al. 2017",""
"578","Todd Lake",185,"Lake","USA","N. America",44.03,-121.69,NA,NA,NA,NA,24.4,NA,NA,"210Pb and 137Cs","Mendonça et al. 2017",""
"579","Arbutus",558,"Lake","USA","N. America",43.99,-74.25,NA,NA,NA,NA,35.1,NA,NA,"210Pb and 137Cs","Mendonça et al. 2017",""
"580","Carlton ",562,"Lake","USA","N. America",27.71,-82.24,NA,NA,NA,NA,114.1,NA,NA,"210Pb and 137Cs","Mendonça et al. 2017",""
"581","Crocker Pond",564,"Lake","USA","N. America",44.31,-70.82,NA,NA,NA,NA,28.3,NA,NA,"210Pb and 137Cs","Mendonça et al. 2017",""
"582","Cypress Lake",565,"Lake","USA","N. America",28.09,-81.32,NA,NA,NA,NA,80.5,NA,NA,"210Pb and 137Cs","Mendonça et al. 2017",""
"583","Eastmain-1",568,"Reservoir","Canada","N. America",52.18,-75.87,NA,NA,NA,NA,32.9,NA,NA,"210Pb and 137Cs","Mendonça et al. 2017",""
"584","Emerald",569,"Lake","USA","N. America",36.6,-118.68,NA,NA,NA,NA,11,NA,NA,"210Pb and 137Cs","Mendonça et al. 2017",""
"585","Golden",575,"Lake","USA","N. America",46.89,-121.9,NA,NA,NA,NA,6.5,NA,NA,"210Pb and 137Cs","Mendonça et al. 2017",""
"586","Green Lake 4",578,"Lake","USA","N. America",40.06,-105.62,NA,NA,NA,NA,9,NA,NA,"210Pb and 137Cs","Mendonça et al. 2017",""
"587","Green Lake 5",578,"Lake","USA","N. America",40.05,-105.63,NA,NA,NA,NA,6.4,NA,NA,"210Pb and 137Cs","Mendonça et al. 2017",""
"588","Hobbs Lake",581,"Lake","USA","N. America",43.03,-109.67,NA,NA,NA,NA,13.2,NA,NA,"210Pb and 137Cs","Mendonça et al. 2017",""
"589","Hoh",582,"Lake","USA","N. America",47.9,-123.79,NA,NA,NA,NA,6.8,NA,NA,"210Pb and 137Cs","Mendonça et al. 2017",""
"590","Lake Ballinger",587,"Lake","USA","N. America",47.78,-122.33,NA,NA,NA,NA,76.9,NA,NA,"210Pb and 137Cs","Mendonça et al. 2017",""
"591","Lake Elbert",588,"Lake","USA","N. America",40.63,-106.71,NA,NA,NA,NA,7,NA,NA,"210Pb and 137Cs","Mendonça et al. 2017",""
"592","Lone Pine",590,"Lake","USA","N. America",40.23,-105.73,NA,NA,NA,NA,11.5,NA,NA,"210Pb and 137Cs","Mendonça et al. 2017",""
"593","Lower Sand Creek Lake",591,"Lake","USA","N. America",37.93,-105.53,NA,NA,NA,NA,2.7,NA,NA,"210Pb and 137Cs","Mendonça et al. 2017",""
"594","Upper Sand Creek Lake",591,"Lake","USA","N. America",37.94,-105.54,NA,NA,NA,NA,8.4,NA,NA,"210Pb and 137Cs","Mendonça et al. 2017",""
"595","LP19",592,"Lake","USA","N. America",46.82,-121.89,NA,NA,NA,NA,12.9,NA,NA,"210Pb and 137Cs","Mendonça et al. 2017",""
"596","Mills",598,"Lake","USA","N. America",40.29,-105.64,NA,NA,NA,NA,27.9,NA,NA,"210Pb and 137Cs","Mendonça et al. 2017",""
"597","Mills",598,"Lake","USA","N. America",40.29,-105.64,NA,NA,NA,NA,23.3,NA,NA,"210Pb and 137Cs","Mendonça et al. 2017",""
"598","Navajo Lake",602,"Lake","USA","N. America",37.85,-108.03,NA,NA,NA,NA,8.9,NA,NA,"210Pb and 137Cs","Mendonça et al. 2017",""
"599","Oldman",603,"Lake","USA","N. America",48.51,-113.46,NA,NA,NA,NA,5.3,NA,NA,"210Pb and 137Cs","Mendonça et al. 2017",""
"600","Pallette Lake",606,"Lake","USA","N. America",46.07,-89.6,NA,NA,NA,NA,16.9,NA,NA,"210Pb and 137Cs","Mendonça et al. 2017",""
"601","Pear",607,"Lake","USA","N. America",36.6,-118.67,NA,NA,NA,NA,8.1,NA,NA,"210Pb and 137Cs","Mendonça et al. 2017",""
"602","PJ",609,"Lake","USA","N. America",47.95,-123.42,NA,NA,NA,NA,58.6,NA,NA,"210Pb and 137Cs","Mendonça et al. 2017",""
"603","Pristine Lake",610,"Lake","USA","N. America",40.69,-106.68,NA,NA,NA,NA,3.7,NA,NA,"210Pb and 137Cs","Mendonça et al. 2017",""
"604","Shoe Factory Road Pond",613,"Lake","USA","N. America",42.05,-88.2,NA,NA,NA,NA,67.9,NA,NA,"210Pb and 137Cs","Mendonça et al. 2017",""
"605","Snyder",618,"Lake","USA","N. America",48.63,-113.8,NA,NA,NA,NA,16.7,NA,NA,"210Pb and 137Cs","Mendonça et al. 2017",""
"606","South Reservoir",619,"Reservoir","USA","N. America",42.44,-71.12,NA,NA,NA,NA,19.8,NA,NA,"210Pb and 137Cs","Mendonça et al. 2017",""
"607","Turkey Hill Reservoir",621,"Reservoir","USA","N. America",41.43,-72.52,NA,NA,NA,NA,38.9,NA,NA,"210Pb and 137Cs","Mendonça et al. 2017",""
"608","Two Medicine Lake",623,"Reservoir","USA","N. America",48.49,-113.37,NA,NA,NA,NA,14.3,NA,NA,"210Pb and 137Cs","Mendonça et al. 2017",""
"609","Ajudante",626,"Lake","Brasil","S. America",-1.45,-56.39,NA,NA,NA,NA,73.4,NA,NA,"210Pb and 137Cs","Mendonça et al. 2017",""
"610","Batata",628,"Lake","Brasil","S. America",-1.53,-56.31,NA,NA,NA,NA,59.5,NA,NA,"210Pb and 137Cs","Mendonça et al. 2017",""
"611","Flexal",630,"Lake","Brasil","S. America",-1.52,-56.27,NA,NA,NA,NA,63,NA,NA,"210Pb and 137Cs","Mendonça et al. 2017",""
"612","Mussurá",634,"Lake","Brasil","S. America",-1.47,-56.31,NA,NA,NA,NA,81.5,NA,NA,"210Pb and 137Cs","Mendonça et al. 2017",""
"613","Kassjön",659,"Lake","Sweden","Europe",63.92,20.01,NA,NA,NA,NA,8,NA,NA,"210Pb and 137Cs","Mendonça et al. 2017",""
"614","Korte Loef pond",663,"Reservoir","Netherlands","Europe",51.78,5.85,NA,NA,NA,NA,89.9,NA,NA,"210Pb and 137Cs","Mendonça et al. 2017",""
"615","Calado Lake",214.1,"Lake","Brazil","S. America",-3.3,-60.58,7.75,NA,NA,NA,84,271.8,30.9,"210Pb","Moreira-Turcq et al., 2004",""
"616","Cristalino Lake",215.1,"Lake","Brazil","S. America",-2,-60.03,5,NA,NA,NA,28,NA,NA,"210Pb","Moreira-Turcq et al., 2004",""
"617","Jacaretinga Lake",218.1,"Lake","Brazil","S. America",-5.43,-60.42,4.9,NA,NA,NA,44,NA,NA,"210Pb","Moreira-Turcq et al., 2004",""
"618","Lago Grande de Curuai",219,"Lake","Brazil","S. America",-2.1,-55.53,8.7,NA,NA,NA,100,5503.61,1.82,"210Pb","Moreira-Turcq et al., 2004",""
"619","Turkana",229,"Lake","Kenya","Africa",3,36.35,NA,NA,NA,NA,162,NA,NA,"210Pb","Obame et al. 2014",""
"620","Bangou Bi",635,"Lake","Niger","Africa",13.51,2.2,NA,NA,NA,NA,213,NA,NA,"Thickness+lake age","Obame et al. 2014",""
"621","Bangou Kirey",635,"Lake","Niger","Africa",13.51,2.23,NA,NA,NA,NA,104,NA,NA,"Thickness+lake age","Obame et al. 2014",""
"622","Naivasha",636,"Lake","Kenya","Africa",-0.78,36.32,NA,NA,NA,NA,37,NA,NA,"210Pb, 137Cs and 226Ra","Obame et al. 2014",""
"623","Sonachi",637,"Lake","Kenya","Africa",-0.78,36.26,NA,NA,NA,NA,9,NA,NA,"210Pb","Obame et al. 2014",""
"624","Albufera des Grau",250,"Lake","Spain","Europe",39.94,4.25,3,NA,NA,7.6,72.44,NA,NA,"210Pb and 137Cs","Obrador & Petrus 2012",""
"625","Kivu",226,"Lake","DRC/Rwanda","Africa",-2.04,29.19,NA,NA,NA,NA,11.15,41.2,27.06,"210Pb and 137Cs","Pasche et al. 2010",""
"626","Kivu – Gisenyi",226,"Lake","Rwanda","Africa",-1.77,29.26,NA,NA,NA,NA,17.2,NA,NA,"210Pb and 137Cs","Pasche et al. 2010",""
"627","Kivu – Ishungu",226,"Lake","DRC","Africa",-2.27,28.99,NA,NA,NA,NA,5.3,NA,NA,"210Pb and 137Cs","Pasche et al. 2010",""
"628","Kivu – Kibuye",226,"Lake","Rwanda","Africa",-2.05,29.31,NA,NA,NA,NA,10.9,NA,NA,"210Pb and 137Cs","Pasche et al. 2010",""
"629","Fayette",56,"Reservoir","USA","N. America",39.17,-92.74,24.7,NA,NA,NA,229,NA,NA,"Thickness+reservoir age","Pittman et al. 2013",""
"630","Jamesport",82,"Reservoir","USA","N. America",40,-93.84,9.7,NA,NA,NA,183,NA,NA,"Thickness+reservoir age","Pittman et al. 2013",""
"631","Lick Creek",98,"Reservoir","USA","N. America",39.3,-94.2,16.4,NA,NA,NA,256,NA,NA,"Thickness+reservoir age","Pittman et al. 2013",""
"632","Worth County",212,"Reservoir","USA","N. America",40.4,-94.52,15.7,NA,NA,NA,279,NA,NA,"Thickness+reservoir age","Pittman et al. 2013",""
"633","Curuá Una",216,"Reservoir","Brazil","S. America",-2.83,-54.3,6,NA,NA,NA,91,NA,NA,"Thickness+reservoir age","Quadra et al. 2020",""
"634","Rostherne Mere",345,"Lake","UK","Europe",53.33,-2.4,NA,NA,NA,NA,125.84,135.6,92.8,"210Pb","Radbourne et al. 2017",""
"635","Rostherne Mere",345,"Lake","UK","Europe",53.33,-2.4,NA,NA,NA,NA,102.37,169.48,60.4,"210Pb","Radbourne et al. 2017",""
"636","Friskjön",339,"Lake","Sweden","Europe",57.94,16.7,NA,NA,NA,NA,21.41,NA,NA,"Thickness+lake age","Sobek et al. 2006",""
"637","Kivu",226,"Lake","DRC/Rwanda","Africa",-2.27,28.99,NA,NA,NA,3.8,18,59,30.51,"210Pb and 137Cs","Sobek et al. 2009",""
"638","Baikal-AK",231,"Lake","Russia","Asia",53.74,108.28,NA,NA,NA,1.3,0.22,7.23,3.04,"210Pb and 137Cs","Sobek et al. 2009",""
"639","Baikal-NB",231,"Lake","Russia","Asia",54.48,108.62,NA,NA,NA,2.2,1.5,6.84,21.93,"210Pb and 137Cs","Sobek et al. 2009",""
"640","Baikal-PO",231,"Lake","Russia","Asia",52.08,105.86,NA,NA,NA,2.5,6.8,17.75,38.3,"210Pb and 137Cs","Sobek et al. 2009",""
"641","Baikal-SB",231,"Lake","Russia","Asia",51.71,105.02,NA,NA,NA,3,2.3,14.14,16.26,"210Pb and 137Cs","Sobek et al. 2009",""
"642","Baikal-VY",231,"Lake","Russia","Asia",51.57,104.85,NA,NA,NA,2.4,3,18.2,16.49,"210Pb and 137Cs","Sobek et al. 2009",""
"643","Brienz-20m",253,"Lake","Switzerland","Europe",46.72,7.97,NA,NA,NA,0.6,17,30.53,55.69,"210Pb and 137Cs","Sobek et al. 2009",""
"644","Brienz-210m",253,"Lake","Switzerland","Europe",46.72,7.98,NA,NA,NA,0.5,26,41.28,62.98,"210Pb and 137Cs","Sobek et al. 2009",""
"645","Constance-CN",254,"Lake","Several","Europe",47.6,9.46,NA,NA,NA,1.7,27,61.97,43.57,"210Pb and 137Cs","Sobek et al. 2009",""
"646","Constance-CS",254,"Lake","Several","Europe",47.6,9.36,NA,NA,NA,1.8,7.9,27.98,28.23,"210Pb and 137Cs","Sobek et al. 2009",""
"647","Constance-IN",254,"Lake","Several","Europe",47.56,9.6,NA,NA,NA,1.1,274,356.07,76.95,"210Pb and 137Cs","Sobek et al. 2009",""
"648","Constance-LA",254,"Lake","Several","Europe",47.58,9.52,NA,NA,NA,1.7,126,166.29,75.77,"210Pb and 137Cs","Sobek et al. 2009",""
"649","Gäddtjärn",340,"Lake","Sweden","Europe",59.86,15.18,NA,NA,NA,27,57,81.31,70.1,"210Pb and 137Cs","Sobek et al. 2009",""
"650","Lilla Sångaren",343,"Lake","Sweden","Europe",59.9,15.39,NA,NA,NA,21,32,59.78,53.53,"210Pb and 137Cs","Sobek et al. 2009",""
"651","Lugano",344,"Lake","Switzerland/Italy","Europe",45.99,8.98,NA,NA,NA,5.4,31,93.9,33.01,"210Pb and 137Cs","Sobek et al. 2009",""
"652","Svarttjärn",347,"Lake","Sweden","Europe",59.89,15.26,NA,NA,NA,31,14,29.64,47.24,"210Pb and 137Cs","Sobek et al. 2009",""
"653","Wholen A",350,"Reservoir","Switzerland","Europe",46.96,7.29,NA,NA,NA,1.8,569,631.46,90.11,"210Pb and 137Cs","Sobek et al. 2009",""
"654","Wholen B",350,"Reservoir","Switzerland","Europe",46.97,7.29,NA,NA,NA,2,689,742.55,92.79,"210Pb and 137Cs","Sobek et al. 2009",""
"655","Wholen C",350,"Reservoir","Switzerland","Europe",46.97,7.29,NA,NA,NA,2,1072,1212.88,88.38,"210Pb and 137Cs","Sobek et al. 2009",""
"656","Wholen D",350,"Reservoir","Switzerland","Europe",46.96,7.3,NA,NA,NA,1.8,1140,1336.3,85.31,"210Pb and 137Cs","Sobek et al. 2009",""
"657","Wholen H",350,"Reservoir","Switzerland","Europe",46.96,7.34,NA,NA,NA,1.1,870,959.82,90.64,"210Pb and 137Cs","Sobek et al. 2009","O2014_1"
"658","Zug-120m",351,"Lake","Switzerland","Europe",47.13,8.49,NA,NA,NA,3.5,26,143.22,18.15,"210Pb and 137Cs","Sobek et al. 2009",""
"659","Zug-50m",351,"Lake","Switzerland","Europe",47.16,8.5,NA,NA,NA,2.8,28,164.65,17.01,"210Pb and 137Cs","Sobek et al. 2009","P2010_1"
"660","Kinneret Lake KI-C",241,"Lake","Israel","Asia",32.82,35.59,4.5,0.32,NA,3.9,54,85,63,"210Pb and 137Cs","Sobek et al. 2011","P2010_2"
"661","Kinneret Lake KI-IN",241,"Lake","Israel","Asia",32.87,35.54,6.3,0.77,NA,1.6,72,231,31,"210Pb and 137Cs","Sobek et al. 2011","P2010_3"
"662","Kinneret Lake KI-LA",241,"Lake","Israel","Asia",32.87,35.55,2,0.66,NA,1.9,23,121,19,"210Pb and 137Cs","Sobek et al. 2011","P2010_4"
"663","Kinneret Lake KI-TI",241,"Lake","Israel","Asia",32.8,35.53,2.8,0.75,NA,1.5,15,77,20,"210Pb and 137Cs","Sobek et al. 2011",""
"664","Wohlen Lake",350,"Reservoir","Switzerland","Europe",46.96,7.32,78,NA,NA,1.74,1113,1279.31,87,"210Pb and 137Cs","Sobek et al. 2012",""
"665","SS1",169,"Lake","Greenland","N. America",66.98,-50.53,1.2,NA,NA,8.9,13.4,60.91,22,"210Pb and 137Cs","Sobek et al. 2014",""
"666","SS2",170,"Lake","Greenland","N. America",67,-50.97,0.27,NA,NA,6.4,3.06,20.4,15,"210Pb and 137Cs","Sobek et al. 2014",""
"667","SS4",171,"Lake","Greenland","N. America",66.99,-51.04,0.39,NA,NA,6.1,4.33,9.84,44,"210Pb and 137Cs","Sobek et al. 2014",""
"668","SS8",172,"Lake","Greenland","N. America",67.01,-51.08,0.5,NA,NA,6.7,5.88,12.78,46,"210Pb and 137Cs","Sobek et al. 2014",""
"669","SS901",173,"Lake","Greenland","N. America",67.14,-50.2,0.38,NA,NA,1.8,4.3,39.09,11,"210Pb and 137Cs","Sobek et al. 2014",""
"670","SS902",174,"Lake","Greenland","N. America",66.13,-50.23,0.45,NA,NA,4,4.55,23.95,19,"210Pb and 137Cs","Sobek et al. 2014",""
"671","SS903",175,"Lake","Greenland","N. America",67.13,-50.17,0.62,NA,NA,3.7,5.93,28.24,21,"210Pb and 137Cs","Sobek et al. 2014",""
"672","Daihai lake (DH)",235,"Lake","China","Asia",40.56,112.68,1.95,NA,NA,NA,0.49,NA,NA,"210Pb","Xie et al. 2015",""
"673","Dalinuoer lake (DLNE)",236,"Lake","China","Asia",43.3,116.58,1.5,NA,NA,NA,1.01,NA,NA,"14C","Xie et al. 2015",""
"674","Hulunhu lake (HLH)",239,"Lake","China","Asia",48.99,117.38,2,NA,NA,NA,1.36,NA,NA,"210Pb","Xie et al. 2015",""
"675","Wuliangsuhai lake (WLSH)",248,"Lake","China","Asia",40.83,108.83,7.65,NA,NA,NA,1.87,NA,NA,"210Pb","Xie et al. 2015",""
"676","Qinghai lake",243,"Lake","China","Asia",36.89,100.07,NA,NA,NA,2.15,7.23,NA,NA,"137Cs","Xu et al. 2013",""
"677","Olentangy Wetland Research Park W1",367,"Constructed wetland","USA","N. America",40.02,83.02,NA,0.53,NA,3.5,152.5,NA,NA,"Mass balance","Anderson & Mitsch 2006",""
"678","Olentangy Wetland Research Park W2",367,"Constructed wetland","USA","N. America",40.02,83.02,NA,0.49,NA,3.7,166,NA,NA,"Mass balance","Anderson & Mitsch 2006",""
"679","Central Ohio (Forested)",365,"Depression wetland","USA","N. America",40,-82.83,6.2,0.54,NA,14.1,473,NA,NA,"210Pb and 137Cs","Bernal & Mitsch 2012",""
"680","Central Ohio (Marsh)",365,"Depression wetland","USA","N. America",40,-82.83,3.4,0.57,NA,15.67,210,NA,NA,"210Pb and 137Cs","Bernal & Mitsch 2012",""
"681","Central Ohio (Shrub)",365,"Depression wetland","USA","N. America",40,-82.83,3,0.56,NA,13.27,202,NA,NA,"210Pb and 137Cs","Bernal & Mitsch 2012",""
"682","Ohio",365,"Depression wetland","USA","N. America",40,-82.83,4.5,0.57,NA,14.4,317,NA,NA,"210Pb and 137Cs","Bernal & Mitsch 2012",""
"683","Old Woman Creek State Natural Preserve (Floating Bed)",366,"Riverine wetland","USA","N. America",41.37,-82.52,3.8,0.63,NA,8.13,160,NA,NA,"210Pb and 137Cs","Bernal & Mitsch 2012",""
"684","Old Woman Creek State Natural Preserve (Marsh)",366,"Riverine wetland","USA","N. America",41.37,-82.52,4.3,0.82,NA,2.23,105,NA,NA,"210Pb and 137Cs","Bernal & Mitsch 2012",""
"685","Old Woman Creek State Natural Preserve (Mudflat)",366,"Riverine wetland","USA","N. America",41.37,-82.52,4.3,0.75,NA,3.49,112,NA,NA,"210Pb and 137Cs","Bernal & Mitsch 2012",""
"686","Earth University (deep peat)",371,"Swamp","Costa Rica","C. America",10.22,-83.57,7.8,0.19,NA,32.5,465,NA,NA,"210Pb and 137Cs","Bernal & Mitsch 2013a",""
"687","Earth University (perm. Flooded)",371,"Swamp","Costa Rica","C. America",10.22,-83.57,9.7,0.36,NA,7.14,222,NA,NA,"210Pb and 137Cs","Bernal & Mitsch 2013a",""
"688","Earth University (vegetated edge)",371,"Swamp","Costa Rica","C. America",10.22,-83.57,10,0.45,NA,5.69,232,NA,NA,"210Pb and 137Cs","Bernal & Mitsch 2013a",""
"689","La Selva Biological Station (open mudflat)",370,"Depression wetland","Costa Rica","C. America",10.42,-84,4,0.56,NA,3.25,61,NA,NA,"210Pb and 137Cs","Bernal & Mitsch 2013a","C2018_2"
"690","La Selva Biological Station (shallow marsh)",370,"Depression wetland","Costa Rica","C. America",10.42,-84,4.8,0.45,NA,6.13,131,NA,NA,"210Pb and 137Cs","Bernal & Mitsch 2013a",""
"691","La Selva Biological Station (vegetated edge)",370,"Depression wetland","Costa Rica","C. America",10.42,-84,4.6,0.53,NA,3.16,61,NA,NA,"210Pb and 137Cs","Bernal & Mitsch 2013a",""
"692","Okavango delta (deep marsh)",385,"Floodplain","Botswana","Africa",-19.53,23.15,1.8,1.02,NA,3.07,41,NA,NA,"210Pb and 137Cs","Bernal & Mitsch 2013a",""
"693","Okavango delta (riverine marsh)",385,"Floodplain","Botswana","Africa",-19.53,23.15,2.6,0.96,NA,1.67,33,NA,NA,"210Pb and 137Cs","Bernal & Mitsch 2013a",""
"694","Okavango delta (shallow marsh)",385,"Floodplain","Botswana","Africa",-19.53,23.15,1.9,0.99,NA,3.33,53,NA,NA,"210Pb and 137Cs","Bernal & Mitsch 2013a",""
"695","Palo Verde Biological Station (mudflat)",372,"Riverine wetland","Costa Rica","C. America",10.33,-85.33,3.3,0.65,NA,4.41,89,NA,NA,"210Pb and 137Cs","Bernal & Mitsch 2013a","C2018_3"
"696","Palo Verde Biological Station (perm.pond)",372,"Riverine wetland","Costa Rica","C. America",10.33,-85.33,3.2,0.7,NA,3.91,84,NA,NA,"210Pb and 137Cs","Bernal & Mitsch 2013a",""
"697","Palo Verde Biological Station (vegetated edge)",372,"Riverine wetland","Costa Rica","C. America",10.33,-85.33,3,0.65,NA,4.49,80,NA,NA,"210Pb and 137Cs","Bernal & Mitsch 2013a","C2018_4"
"698","Olentangy Wetland Research Park – Open Water",367,"Riverine wetland","USA","N. America",40.02,83.02,11.9,0.59,NA,3.96,267,NA,NA,"Soil marker","Bernal & Mitsch 2013b",""
"699","Olentangy Wetland Research Park - Emergent",367,"Riverine wetland","USA","N. America",40.02,83.02,8,0.67,NA,3.99,212,NA,NA,"Soil marker","Bernal & Mitsch 2013b",""
"700","Olentangy Wetland Research Park – Edge",367,"Riverine wetland","USA","N. America",40.02,83.02,7.8,0.75,NA,4.65,255,NA,NA,"Soil marker","Bernal & Mitsch 2013b",""
"701","Corn Belt of the Midwest",368,"Depression wetland","USA","N. America",41.22,-87.28,NA,0.87,NA,30.17,39,NA,NA,"210Pb and 137Cs","Craft et al. 2018",""
"702","Danube floodplain",392,"Floodplain","Austria","Europe",48,16,NA,NA,NA,NA,180,NA,NA,"137Cs","Craft et al. 2018",""
"703","Georgia",354,"Floodplain","USA","N. America",31.22,-84.48,NA,NA,NA,NA,63,NA,NA,"210Pb and 137Cs","Craft et al. 2018",""
"704","Georgia",354,"Depression wetland","USA","N. America",31.22,-84.48,NA,NA,NA,NA,45,NA,NA,"210Pb and 137Cs","Craft et al. 2018",""
"705","Georgia",355,"Floodplain","USA","N. America",32,-82,NA,NA,NA,NA,50,NA,NA,"210Pb and 137Cs","Craft et al. 2018",""
"706","Horstermeer",394,"Depression wetland","Netherlands","Europe",52.14,5.04,NA,NA,NA,NA,280,NA,NA,"NEE","Craft et al. 2018",""
"707","Maryland",356,"Floodplain","USA","N. America",38,-76,NA,NA,NA,NA,60,NA,NA,"137Cs","Craft et al. 2018",""
"708","Mid-Atlantic coastal plain",357,"Floodplain","USA","N. America",39.03,-77.61,NA,NA,NA,NA,143,NA,NA,"Sediment pads","Craft et al. 2018",""
"709","Mid-Atlantic coastal plain (mean above)",357,"Floodplain","USA","N. America",38.25,-76.5,NA,NA,NA,NA,93,NA,NA,"Sediment pads","Craft et al. 2018",""
"710","South Bohemia",393,"Depression wetland","Check Republic","Europe",49.08,14.82,NA,0.29,NA,47,110,NA,NA,"210Pb and 137Cs","Craft et al. 2018",""
"711","Virginia",364,"Floodplain","USA","N. America",38.97,-77.23,NA,NA,NA,NA,175,NA,NA,"Sediment pads","Craft et al. 2018",""
"712","Virginia",364,"Floodplain","USA","N. America",38.97,-77.23,NA,NA,NA,NA,11,NA,NA,"Sediment pads","Craft et al. 2018",""
"713","Rhine",395,"Floodplain","Several","Europe",49.23,8.39,NA,NA,NA,2.1,0.61,NA,NA,"Mass balance","Hoffman et al. 2013",""
"714","Rhine",395,"Hillslope","Several","Europe",49.23,8.39,NA,NA,NA,0.8,0.44,NA,NA,"Mass balance","Hoffman et al. 2013",""
"715","Aylett (AYL)",361,"Floodplain","USA","N. America",37.75,-77.15,3.7,NA,NA,NA,244,NA,NA,"Sediment pads","Noe & Hupp 2009",""
"716","Blades (BLD)",356,"Floodplain","USA","N. America",38.17,-75.42,4.2,NA,NA,NA,133,NA,NA,"Sediment pads","Noe & Hupp 2009",""
"717","Bottoms Bridge (BBR)",358,"Floodplain","USA","N. America",37.5,-77.25,0.4,NA,NA,NA,121,NA,NA,"Sediment pads","Noe & Hupp 2009",""
"718","Brock Bridge (BRB)",363,"Floodplain","USA","N. America",39,-76.67,1.4,NA,NA,NA,73,NA,NA,"Sediment pads","Noe & Hupp 2009",""
"719","Burkes Bridge (BRK)",361,"Floodplain","USA","N. America",37.9,-77.3,1.8,NA,NA,NA,59,NA,NA,"Sediment pads","Noe & Hupp 2009",""
"720","Cypress Swamp (CYP)",356,"Floodplain","USA","N. America",38.5,-75.25,1.2,NA,NA,NA,127,NA,NA,"Sediment pads","Noe & Hupp 2009",""
"721","Delaware Crossing (DEL)",356,"Floodplain","USA","N. America",38.5,-75.25,0.5,NA,NA,NA,58,NA,NA,"Sediment pads","Noe & Hupp 2009",""
"722","Engel Farm (ENF)",362,"Floodplain","USA","N. America",37.75,-77.35,1.5,NA,NA,NA,46,NA,NA,"Sediment pads","Noe & Hupp 2009",""
"723","Holiday Park (HOP)",359,"Floodplain","USA","N. America",39,-75.75,3,NA,NA,NA,102,NA,NA,"Sediment pads","Noe & Hupp 2009",""
"724","Mascot (MST)",360,"Floodplain","USA","N. America",37.65,-76.65,3,NA,NA,NA,89,NA,NA,"Sediment pads","Noe & Hupp 2009",""
"725","Pampatike (PAM)",362,"Floodplain","USA","N. America",37.65,-77.2,4,NA,NA,NA,87,NA,NA,"Sediment pads","Noe & Hupp 2009",""
"726","Porters (POR)",356,"Floodplain","USA","N. America",38.25,-75.25,2.1,NA,NA,NA,117,NA,NA,"Sediment pads","Noe & Hupp 2009","S2017_1"
"727","Providence Forge (PRF)",358,"Floodplain","USA","N. America",37.4,-77.15,2.9,NA,NA,NA,164,NA,NA,"Sediment pads","Noe & Hupp 2009",""
"728","Red Bridges (REB)",359,"Floodplain","USA","N. America",39,-75.75,1.1,NA,NA,NA,40,NA,NA,"Sediment pads","Noe & Hupp 2009",""
"729","Upham Brook (UPH)",358,"Floodplain","USA","N. America",37.6,-77.4,4.8,NA,NA,NA,166,NA,NA,"Sediment pads","Noe & Hupp 2009",""
"730","Whitons (WHI)",356,"Floodplain","USA","N. America",38.25,-75.25,2,NA,NA,NA,81,NA,NA,"Sediment pads","Noe & Hupp 2009",""
"731","Willards (WIL)",356,"Floodplain","USA","N. America",38.5,-75.25,0.9,NA,NA,NA,68,NA,NA,"Sediment pads","Noe & Hupp 2009",""
"732","Acarabixi",376.2,"Floodplain","Brazil","S. America",-6.21,-50.75,NA,NA,NA,25,265,NA,NA,"IRMS","Sanders et al. 2017",""
"733","Araca",379,"Floodplain","Brazil","S. America",-8.17,-62.78,12.1,NA,NA,5.7,1123,NA,NA,"LOI","Sanders et al. 2017",""
"734","Brasileira",380,"Floodplain","Brazil","S. America",-8.17,-62.78,9,NA,NA,5,260,NA,NA,"LOI","Sanders et al. 2017",""
"735","Calado",214.2,"Floodplain","Brazil","S. America",-3.09,-60.57,NA,NA,NA,12.6,70,NA,NA,"CHN analyzer","Sanders et al. 2017",""
"736","Calado",214.2,"Floodplain","Brazil","S. America",-3.09,-60.57,NA,NA,NA,6.7,56,NA,NA,"CHN analyzer","Sanders et al. 2017",""
"737","Calado",214.2,"Floodplain","Brazil","S. America",-3.09,-60.57,NA,NA,NA,12.5,55,NA,NA,"CHN analyzer","Sanders et al. 2017",""
"738","Calado",214.2,"Floodplain","Brazil","S. America",-3.09,-60.57,NA,NA,NA,6.8,49,NA,NA,"CHN analyzer","Sanders et al. 2017",""
"739","Calado",214.2,"Floodplain","Brazil","S. America",-3.09,-60.57,NA,NA,NA,2.2,25,NA,NA,"CHN analyzer","Sanders et al. 2017",""
"740","Calado",214.2,"Floodplain","Brazil","S. America",-3.09,-60.57,NA,NA,NA,2.3,11,NA,NA,"CHN analyzer","Sanders et al. 2017",""
"741","Conceicao",383,"Floodplain","Brazil","S. America",-8.17,-62.78,9.75,NA,NA,7.7,662,NA,NA,"LOI","Sanders et al. 2017",""
"742","Cristalino",215.2,"Floodplain","Brazil","S. America",-2,-60.03,NA,NA,NA,2.5,28,NA,NA,"CHN analyzer","Sanders et al. 2017",""
"743","Demarcacao",377,"Floodplain","Brazil","S. America",-8.17,-62.78,NA,NA,NA,6.9,500,NA,NA,"LOI","Sanders et al. 2017",""
"744","Demarcacao",377,"Floodplain","Brazil","S. America",-8.17,-62.78,5.4,NA,NA,7.6,365,NA,NA,"LOI","Sanders et al. 2017",""
"745","Jacaretinga",218.2,"Floodplain","Brazil","S. America",-5.43,-60.42,NA,NA,NA,2.5,43,NA,NA,"CHN analyzer","Sanders et al. 2017",""
"746","Lago Verde PA09",375,"Floodplain","Brazil","S. America",-6.21,-50.75,NA,NA,NA,3.7,475,NA,NA,"IRMS","Sanders et al. 2017",""
"747","Nazare",382,"Floodplain","Brazil","S. America",-8.17,-62.78,2.7,NA,NA,3.5,158,NA,NA,"LOI","Sanders et al. 2017",""
"748","Paca",378,"Floodplain","Brazil","S. America",-8.17,-62.78,1.7,NA,NA,9.4,385,NA,NA,"LOI","Sanders et al. 2017",""
"749","Paca",378,"Floodplain","Brazil","S. America",-8.17,-62.78,NA,NA,NA,7.8,193,NA,NA,"LOI","Sanders et al. 2017",""
